name,massif,lat,lon,denivele_positif,exposition,difficulty_ski,url
Pointe W de Jasse Bralard : versant SW,Belledonne,45.1403,5.9376,1150,SO,S3,https://www.camptocamp.org/routes/1601805
Sommet de la Tour Perret : Tour anti-horaire,Belledonne,45.1832,5.7388,5,E,S1,https://www.camptocamp.org/routes/1198631
Rocca Bianca : Depuis Prali / Indiritti,Queyras,44.9016,7.0911,780,SO,S2,https://www.camptocamp.org/routes/847453
Grand Veymont : Couloir W,Vercors,44.866,5.5206,1000,O,S5,https://www.camptocamp.org/routes/1179515
Mont Selletta : Par la crête de Cavallo Bianco,Queyras,44.8939,7.0273,1200,NO,S3,https://www.camptocamp.org/routes/847425
Founset : Par le vallon du torrent des 13 Lacs,Queyras,44.8681,7.095,1350,N,S3,https://www.camptocamp.org/routes/846993
Jas du Chamois : En boucle depuis Bousieyas,Mercantour,44.353,6.8333,2500,S,S2,https://www.camptocamp.org/routes/866944
Rocca Verde : Par la combe du Faniet,Mercantour,44.3359,6.9708,1230,NO,S3,https://www.camptocamp.org/routes/966212
Claï Inférieur : depuis le Pont Haut.,Mercantour,44.2988,6.9249,1300,SO,S3,https://www.camptocamp.org/routes/981153
Rocher de l'Homme : Couloir NE en Z,Belledonne,45.1898,5.991,1500,NE,S5,https://www.camptocamp.org/routes/853583
L'Étale - Pointe 2266 m : Face N,Aravis,45.8441,6.4401,1076,N,S3,https://www.camptocamp.org/routes/1398266
Mont Granier : Face NE directe par le Pas de la Porte,Chartreuse,45.4656,5.9287,1100,NE,S5,https://www.camptocamp.org/routes/970926
Tête de la Cassille : Couloir Chantriaux / Paret,Thabor,45.0422,6.5011,1600,SE,S5,https://www.camptocamp.org/routes/862064
Dents de Bédina : Arête NW de la Dent Blanche,Belledonne,45.2381,6.0227,1100,O,S4,https://www.camptocamp.org/routes/964258
Crête d'Argentière - Antécime E : Couloir N,Grandes-Rousses,45.1094,6.3829,1300,N,S4,https://www.camptocamp.org/routes/986236
Pointe de Bellevue : Couloirs SE,Chablais,46.2572,6.8917,760,SE,S4,https://www.camptocamp.org/routes/978056
Tête de Pei de Juin : Par le vallon de Pouriac,Queyras,44.3771,6.8962,1000,NE,S3,https://www.camptocamp.org/routes/966325
Grande Moucherolle : Face SW directe,Vercors,45.0049,5.5641,1070,SO,S4,https://www.camptocamp.org/routes/1185067
Pointe W de Jasse Bralard : Face NW de l'Antécime NW,Belledonne,45.1414,5.934,1350,NO,S5,https://www.camptocamp.org/routes/974234
La Botte : Couloir Léandro,Belledonne,45.1229,5.9146,500,SO,S4,https://www.camptocamp.org/routes/1378914
Pointe de Terre Rouge : Traversée S>W,Thabor,45.1323,6.5109,900,O,S2,https://www.camptocamp.org/routes/1374390
Pic de Panestrel : Goulotte Rom et Pastaga,Queyras,44.5891,6.8088,1400,E,S3,https://www.camptocamp.org/routes/1089365
Bec de l'Aigle (Jausiers) : Crête des Chamois,Mercantour,44.4329,6.8471,1060,NE,S3,https://www.camptocamp.org/routes/1084174
Dôme de la Sache : par le couloir SW de la Grande Paréi,Vanoise,45.5109,6.8705,1790,SO,S5,https://www.camptocamp.org/routes/1195866
Col des Ugousses : Par la vallon des Hugues,Queyras,44.634,6.8856,1200,SE,S3,https://www.camptocamp.org/routes/1190413
Cime du Petit Sauvage : Couloir SE,Grandes-Rousses,45.1499,6.159,1710,SE,S5,https://www.camptocamp.org/routes/620143
Cimes du Grand Sauvage : Face SE Suspendue du Sommet 3168 m,Grandes-Rousses,45.1271,6.1653,1760,SE,S5,https://www.camptocamp.org/routes/715918
Pointe Ronde : Crête NE : La Ptite Veudale,Mont-Blanc,46.0543,7.0249,1465,O,S4,https://www.camptocamp.org/routes/838240
"Pertuis de Savalène : Couloir N ""Les Cavoués sans issue""",Chablais,46.3231,6.8123,730,N,S4,https://www.camptocamp.org/routes/1293512
Mont Gruetta occidental : Face S,Mont-Blanc,45.8796,7.0172,2450,S,S4,https://www.camptocamp.org/routes/1757634
Col de la Vallée Étroite : Versant SW ,Vanoise,45.2581,6.5227,1300,SO,S3,https://www.camptocamp.org/routes/1292322
Pointe du Van : Couloir en S,Mont-Blanc,46.0385,6.9779,900,E,S4,https://www.camptocamp.org/routes/1291434
Pointe d'Aval / Chauvet :  Couloir W,Queyras,44.5458,6.8359,1660,O,S3,https://www.camptocamp.org/routes/1188724
Tour de la pointe de Buffère ,Thabor,44.9958,6.5544,1000,NO,S3,https://www.camptocamp.org/routes/1186400
Col des Pyramides Calcaires : Par le Val Veny,Mont-Blanc,45.7665,6.833,1100,NE,S2,https://www.camptocamp.org/routes/1183366
Boucle col de Roche Noire >> Crête de la Grande Manche,Thabor,45.0008,6.5332,1500,E,S3,https://www.camptocamp.org/routes/1182394
"Roche Rousse - Sommet S : Couloir E des ""Dents de Requins""",Vercors,44.8989,5.523,870,E,S3,https://www.camptocamp.org/routes/1282921
Grande Lance d'Allemont : Couloir S ,Belledonne,45.1492,5.9927,1735,S,S3,https://www.camptocamp.org/routes/1282578
"Pas Etoupe : Couloir ""sans issue"" NE",Vercors,44.9506,5.5222,900,NE,S5,https://www.camptocamp.org/routes/1282158
Roche Rousse - Sommet N : Couloir faille E,Vercors,44.9033,5.5208,860,E,S5,https://www.camptocamp.org/routes/1281534
Roche Rousse - Sommet N : Couloir central E,Vercors,44.9033,5.5208,810,E,S5,https://www.camptocamp.org/routes/1281244
Pointe de Comborsier : Tour depuis Grand Naves,Beaufortain,45.6101,6.5155,2050,E,S3,https://www.camptocamp.org/routes/1280401
Montagne de Sulens : Depuis la route des Pythieres,Aravis,45.8342,6.363,1106,NO,S2,https://www.camptocamp.org/routes/1278144
Le Doigt cassé : Traversée Lintre > les Ruthieux,Aravis,45.9491,6.5813,830,NE,S2,https://www.camptocamp.org/routes/1278114
Cime du Pra : versant N,Mercantour,44.0478,6.9169,890,N,S3,https://www.camptocamp.org/routes/1275109
Cima Ostanetta : da Ostana,Queyras,44.7105,7.1965,750,SE,S2,https://www.camptocamp.org/routes/1274745
Tête de Vinaigre : Versant N,Mercantour,44.3069,6.8808,600,N,S2,https://www.camptocamp.org/routes/1109921
Tour du Mont Pelve depuis le refuge du Col de la Vanoise,Vanoise,45.3521,6.785,1400,SO,S2,https://www.camptocamp.org/routes/1099522
Aiguille du Chardonnet : Grand tour par les 7 cols,Mont-Blanc,45.9697,7.0184,3200,E,S3,https://www.camptocamp.org/routes/1098936
"Pointe Mathews : ""Le Grand Couloir"" face S",Vanoise,45.3995,6.8217,2450,SE,S5,https://www.camptocamp.org/routes/1098804
Le Grand Bec : Face N de l'antécime N,Vanoise,45.4422,6.7468,1800,N,S5,https://www.camptocamp.org/routes/1098512
Dent Parrachée : Face NW - Voie des Aiguilles Grises,Vanoise,45.289,6.7562,2555,N,S5,https://www.camptocamp.org/routes/1753246
Cirque Maudit : Depuis Helbronner,Mont-Blanc,45.8497,6.8904,570,E,S2,https://www.camptocamp.org/routes/817801
Lac du Goléon : par le verrou du Greppon,Grandes-Rousses,45.0726,6.3447,700,SO,S3,https://www.camptocamp.org/routes/772622
Dent du Loup : Face SW de gauche,Chablais,46.3282,6.7355,1280,SO,S4,https://www.camptocamp.org/routes/855242
Croix du Lautaret : Depuis le Vallon de Combau,Vercors,44.7763,5.5346,900,E,S3,https://www.camptocamp.org/routes/854367
Grandes Otanes / Autannes : Grandes Otanes depuis Trient par Carraye et l'Arolette,Mont-Blanc,46.0299,6.9767,2100,E,S3,https://www.camptocamp.org/routes/853297
Tête de Rasis : depuis le Roux d'Abriès,Queyras,44.8391,6.9353,1228,E,S3,https://www.camptocamp.org/routes/853287
Col de Malaure : depuis Le Roux,Queyras,44.8114,6.9787,786,O,S3,https://www.camptocamp.org/routes/853147
Rocca la Marchisa : Rocca Marchisa par les cols de Brune et Chersogno depuis Lausetto,Queyras,44.5391,7.003,1800,S,S3,https://www.camptocamp.org/routes/852205
Bric Gavalupo da ponte Gianna,Queyras,44.9141,7.0964,900,N,S2,https://www.camptocamp.org/routes/851367
Colletto Vittorio depuis Chialvetta,Queyras,44.4112,6.9724,1050,NO,S3,https://www.camptocamp.org/routes/851360
La Foilleuse / Pointe de Savolaire : Versant NE et Plan des Merlaux,Chablais,46.2296,6.871,510,N,S4,https://www.camptocamp.org/routes/848857
Col du Pouta : Versant E par le couloir caché ,Belledonne,45.2446,6.0333,920,E,S4,https://www.camptocamp.org/routes/1639034
Colle di Valmiana : Livio Bianco > Valasco,Mercantour,44.2216,7.2388,1150,E,S4,https://www.camptocamp.org/routes/1637991
Monte Barifreddo : Couloirs NW,Queyras,44.8983,6.9879,1414,NO,S4,https://www.camptocamp.org/routes/1634583
Passo Luisas : Traversée N → S,Queyras,44.7168,7.0703,1300,N,S3,https://www.camptocamp.org/routes/1632451
Passo della Losetta / Pas de la Losetta : Traversée Sud->ouest depuis Vallanta,Queyras,44.6762,7.0589,450,S,S3,https://www.camptocamp.org/routes/1632449
Cimes du Grand Sauvage : Face E du Sommet 3049m ,Grandes-Rousses,45.1542,6.1659,1640,E,S4,https://www.camptocamp.org/routes/1632206
Il Colletto : da Chiappera,Queyras,44.4486,6.949,1200,S,S3,https://www.camptocamp.org/routes/1631661
Petit Mounier : Depuis Roya,Mercantour,44.1499,6.9626,1400,N,S3,https://www.camptocamp.org/routes/1628599
Col  du Six Carro : Traversée Val d'Arpette Combe de Barmay,Mont-Blanc,46.0256,7.0486,814,S,S4,https://www.camptocamp.org/routes/1737298
Tête de Baume Noire : Couloir N de la Grotte Suspendue,Devoluy,44.6402,5.9145,800,N,S5,https://www.camptocamp.org/routes/1737014
Le Roignais : Face et couloir W ,Beaufortain,45.643,6.6886,1600,O,S5,https://www.camptocamp.org/routes/1732010
Mont Fleuri : Couloir E,Aravis,45.9327,6.5339,1700,E,S5,https://www.camptocamp.org/routes/1730359
Roche de l'Abisse : Fort Central,Mercantour,44.1434,7.5041,550,N,S2,https://www.camptocamp.org/routes/848195
Croix d'Increne : Versant N: Lanche des Ravines,Chablais,46.153,6.8234,784,N,S3,https://www.camptocamp.org/routes/848106
Croix d'Increne : Versant SE,Chablais,46.1516,6.8326,784,SE,S3,https://www.camptocamp.org/routes/848069
Les Raies des Follys : Versant S du point 1857,Chablais,46.2036,6.6089,650,SO,S2,https://www.camptocamp.org/routes/846414
Monte Pintas : Da Balboutet con discesa dal versante NE,Queyras,45.0789,7.0441,1100,NE,S5,https://www.camptocamp.org/routes/844716
Dou de Moûtiers : Face W,Vanoise,45.5011,6.6108,1177,O,S2,https://www.camptocamp.org/routes/844521
Pointe de Cerdosse : Rampe S,Beaufortain,45.6258,6.651,1200,S,S3,https://www.camptocamp.org/routes/844281
Les Fredys : Circuit Mayères > Vallon de Coeur,Aravis,45.9372,6.561,1200,SE,S2,https://www.camptocamp.org/routes/842016
Montagne de Sulens : Depuis Les Clefs,Aravis,45.832,6.3665,1300,NO,S3,https://www.camptocamp.org/routes/841734
Monte Manzol : dalla conca del Pra per il passo Manzol,Queyras,44.731,7.0641,1200,N,S4,https://www.camptocamp.org/routes/873827
Col Sellière : dalla conca del Pra per il rifugio Granero,Queyras,44.7607,7.0478,1100,N,S3,https://www.camptocamp.org/routes/873824
Le Jocou : Versant NE et arête N,Vercors,44.7291,5.653,700,E,S3,https://www.camptocamp.org/routes/872205
Col de Talèfre : Couloir W,Mont-Blanc,45.9082,7.0124,1000,O,S4,https://www.camptocamp.org/routes/870579
Refuge du Mont Thabor : Par la Vallée Étroite,Thabor,45.1047,6.6033,1000,N,S2,https://www.camptocamp.org/routes/869626
Montagne d'Aurouze : Versant NE,Devoluy,44.6409,5.8934,940,NE,S1,https://www.camptocamp.org/routes/865409
Tête de l'Adrech d'en Barris : Par le col de la Lombarde,Mercantour,44.2048,7.145,400,E,S2,https://www.camptocamp.org/routes/865080
Monte Triplex : Da Villardamond per l'Alpe Bruns e la Rocca Nera,Queyras,44.9949,6.8748,800,S,S3,https://www.camptocamp.org/routes/1611387
Col de la Fenêtre : En boucle depuis les Contamines via la Chenalettaz,Beaufortain,45.7634,6.6895,1085,N,S3,https://www.camptocamp.org/routes/1608818
St Dalmas le Selvage - pointe Chaufrède - cime de la Bonette - crête de la Clape - crête de Pra Gaze,Mercantour,44.3261,6.8055,2626,E,S3,https://www.camptocamp.org/routes/1608632
À-Pic de Badon : Couloir NE,Belledonne,45.259,6.1111,1130,NE,S3,https://www.camptocamp.org/routes/1606612
Brèche SE du Mouchillon : Couloir E,Belledonne,45.2593,6.0923,1260,E,S5,https://www.camptocamp.org/routes/1606571
Aiguille du Midi : Éperon Jumeau,Mont-Blanc,45.8819,6.8944,1520,N,S3,https://www.camptocamp.org/routes/1675813
"Grande Fourche : Le Z, face SSE",Mont-Blanc,45.9739,7.0194,2130,S,S3,https://www.camptocamp.org/routes/1662724
Petit Rochebrune : Par les Fonts de Cervières,Queyras,44.8249,6.8459,1137,O,S3,https://www.camptocamp.org/routes/1656635
Le Génepi (Arpette) : Aller-retour depuis le Col de la Forclaz,Mont-Blanc,46.0245,7.0444,1355,N,S2,https://www.camptocamp.org/routes/1642998
Tête de la Combe de Scluos : Traversée Isola - Portettes - Préfouns,Mercantour,44.1683,7.2197,1200,N,S4,https://www.camptocamp.org/routes/1642193
Monte Scaletta : Dal vallone di Unerzio,Queyras,44.4245,6.9515,1290,N,S4,https://www.camptocamp.org/routes/864378
Bric Fontanafredda : da Pattemouche con discesa sul rifugio Troncea,Queyras,44.9662,6.9674,1010,SO,S2,https://www.camptocamp.org/routes/863184
Les Hauts-Forts : Face S - rampes E (voie des strates),Chablais,46.1587,6.7668,1246,E,S5,https://www.camptocamp.org/routes/861136
"Pointe de la Sana : Versant E, depuis le Fond des Fours",Vanoise,45.3851,6.9176,950,N,S3,https://www.camptocamp.org/routes/860956
Rocca Bianca : da Villa di Prali,Queyras,44.9044,7.074,1000,N,S3,https://www.camptocamp.org/routes/858915
Mont de la Plane ou sommet de la Loubatière : Couloir NE du Mont de la Plane,Queyras,44.9207,6.749,150,NE,S4,https://www.camptocamp.org/routes/857848
Cime de la Charvie : en traversée depuis Brunissard,Queyras,44.8556,6.7626,1600,S,S3,https://www.camptocamp.org/routes/857553
Arvieux - col de combe Laboye - col de la Rousse - Brunissard,Queyras,44.7854,6.6911,1250,E,S3,https://www.camptocamp.org/routes/857540
Pic de Ségure : traversée S-W depuis le refuge d'Agnel,Queyras,44.7381,6.9676,1100,S,S3,https://www.camptocamp.org/routes/857351
Pain de Sucre (Queyras) : Tour depuis l'Echalp,Queyras,44.71,6.9894,1750,E,S4,https://www.camptocamp.org/routes/857347
Roc de Garnesier : Couloir NW de l'épaule N,Devoluy,44.6679,5.7869,820,NO,S5,https://www.camptocamp.org/routes/857034
Anticima S Orsiera : Pendio S da Pra Catinat,Queyras,45.0602,7.1082,1150,S,S4,https://www.camptocamp.org/routes/856019
Tour du Pouilly : Col de la Tulle  > Col des Porthets,Aravis,45.813,6.4171,1400,E,S4,https://www.camptocamp.org/routes/956589
Pointe de Beauregard : depuis La Clusaz par le chalet de Corbassière,Aravis,45.8998,6.4165,620,N,S1,https://www.camptocamp.org/routes/956507
Chamechaude - Epaule N : depuis Saint-Hugues,Chartreuse,45.2966,5.7922,700,N,S3,https://www.camptocamp.org/routes/955037
Roc des Saints Pères : Couloir W,Vanoise,45.2872,6.5988,1100,O,S4,https://www.camptocamp.org/routes/954661
Monte Testa canale N da Roaschia,Mercantour,44.2461,7.4446,1152,N,S3,https://www.camptocamp.org/routes/951519
Monte Testas : da Roaschia per il vallone della Freida,Mercantour,44.2428,7.4588,1050,N,S3,https://www.camptocamp.org/routes/951225
Dôme de la Girotte : Versant SW,Beaufortain,45.7592,6.6391,780,SO,S2,https://www.camptocamp.org/routes/951182
Rocce Funs : Dal Pian Melzè per il Cumbal del Rio,Queyras,44.7167,7.0895,1050,S,S3,https://www.camptocamp.org/routes/945990
"Le Châtel ou Bonnet de Calvin : depuis Cordéac, par les barres du versant E",Devoluy,44.8225,5.8109,360,E,S3,https://www.camptocamp.org/routes/896917
La Sétaz des Prés : Couloir des Chamois,Thabor,45.1326,6.4551,250,E,S3,https://www.camptocamp.org/routes/887879
Raid  autour de la Pierra Menta,Beaufortain,45.6182,6.6088,1770,S,S2,https://www.camptocamp.org/routes/1574725
Aller retour dôme des Nants,Vanoise,45.3923,6.7907,1500,N,S1,https://www.camptocamp.org/routes/1551315
Tête de la Petite Part : Versant N,Queyras,44.6022,6.811,1390,N,S3,https://www.camptocamp.org/routes/1539780
Rocher Pilliozan : Couloir E/NE en Y,Belledonne,45.2247,6.1189,680,E,S4,https://www.camptocamp.org/routes/1536178
Punta Maladecia : Couloir SW,Mercantour,44.2444,7.131,1550,SO,S4,https://www.camptocamp.org/routes/1535511
Punta Sea Bianca : Dal Vallone della Gianna,Queyras,44.7242,7.1149,1250,N,S3,https://www.camptocamp.org/routes/1529647
Pic N de la Font Sancte : Couloir S,Queyras,44.6007,6.8014,1430,S,S4,https://www.camptocamp.org/routes/1526247
Roche de Casse : Couloir SE,Grandes-Rousses,45.0809,6.3499,970,SE,S5,https://www.camptocamp.org/routes/1620085
Col de Gébroulaz : Gébroulaz → Borgne,Vanoise,45.2711,6.6185,600,N,S3,https://www.camptocamp.org/routes/882123
La Patenaille : Couloirs E ,Chablais,46.1781,6.8209,550,E,S4,https://www.camptocamp.org/routes/881163
Tête de la Petite Part : Face E,Queyras,44.6022,6.811,1150,E,S5,https://www.camptocamp.org/routes/879558
Crête Toit - Agnelin : Couloirs jumeaux NE,Belledonne,45.2271,6.1224,905,NE,S5,https://www.camptocamp.org/routes/878212
Tête des Mourres : Par les lacs de Morgon,Mercantour,44.3326,6.9192,1060,O,S2,https://www.camptocamp.org/routes/877533
Croupe de l'Herpie : Point 3060 m : Le Z,Grandes-Rousses,45.1144,6.12,20,E,S5,https://www.camptocamp.org/routes/877259
Aiguille de Chillol : Couloir Sans Issue,Queyras,44.5718,6.8478,1310,E,S5,https://www.camptocamp.org/routes/876264
Pointe N des Lorès : Face NW,Vanoise,45.397,6.9721,400,NO,S3,https://www.camptocamp.org/routes/875761
Aiguille des Glaciers : Arête SW par la pente N du Col des Glaciers,Mont-Blanc,45.7758,6.7932,3000,SO,S3,https://www.camptocamp.org/routes/875737
Dôme des Pichères : Couloir NW,Vanoise,45.4918,6.7983,1680,NO,S5,https://www.camptocamp.org/routes/875299
"Tête de Vachères : Couloir SE, le S",Devoluy,44.6737,5.7983,1200,SE,S5,https://www.camptocamp.org/routes/972509
Cima dell'Uia da Forno di Coazze,Queyras,45.0059,7.2116,1108,N,S4,https://www.camptocamp.org/routes/972036
Col de l'Izoard : Versant S,Queyras,44.8205,6.733,720,S,S1,https://www.camptocamp.org/routes/971502
Cima Ostanetta : da Rucas - Montoso per la parete E,Queyras,44.7399,7.2164,850,E,S4,https://www.camptocamp.org/routes/971239
Le Rissiou : Face N,Grandes-Rousses,45.1837,6.0682,1600,N,S4,https://www.camptocamp.org/routes/971102
Col de Fontouse ou de Clausis : Tour de Barre Noire,Queyras,44.7358,6.7314,1000,N,S3,https://www.camptocamp.org/routes/970928
Pointe des Plines : Couloir ENE,Mont-Blanc,45.9812,7.0574,1870,E,S5,https://www.camptocamp.org/routes/969291
Aiguilles d'Arpette - Creux Magnin (point 2614 m) : Couloir du Mètre Huitant,Mont-Blanc,46.0147,7.0862,940,E,S5,https://www.camptocamp.org/routes/969105
L'Etale - Triangle 2112 m : Face NW,Aravis,45.8523,6.4352,920,NO,S5,https://www.camptocamp.org/routes/968066
Crête des Blattes : Couloirs NW,Chablais,46.274,6.784,1100,NO,S5,https://www.camptocamp.org/routes/967940
Cimes du Grand Sauvage : Face S du Sommet 3049m,Grandes-Rousses,45.1542,6.1659,1640,S,S5,https://www.camptocamp.org/routes/1508698
Traversée W -E du col de Fontaine Froide par le col de la vallée étroite,Thabor,45.1689,6.6502,1020,N,S3,https://www.camptocamp.org/routes/1508498
Pas de la Bosse : En boucle depuis La Chapelle d’Abondance,Chablais,46.3253,6.7742,750,SO,S2,https://www.camptocamp.org/routes/1506377
Brèche des Ombres : Couloir N de la Cathédrale,Devoluy,44.7545,5.8444,900,N,S4,https://www.camptocamp.org/routes/1506334
Croix de Fer : Couloir SE direct,Mont-Blanc,46.0465,6.994,1030,SE,S5,https://www.camptocamp.org/routes/1504475
Monte Corbioun : Da Bousson per versante NO e cresta dal Petit Cric,Queyras,44.903,6.8053,1000,N,S3,https://www.camptocamp.org/routes/1502080
Aiguille à Bochard : Arête S -> couloir W -> couloir du Chapeau,Mont-Blanc,45.9467,6.9383,250,S,S4,https://www.camptocamp.org/routes/1498781
Mont Morbié / Mont Pelat : Par les anciennes pistes,Bauges,45.594,6.1161,600,NO,S3,https://www.camptocamp.org/routes/1497543
Monte Querrelet : Da Sestriere per il monte Sises,Queyras,44.939,6.9022,1100,N,S3,https://www.camptocamp.org/routes/1599614
Mont Lachat (Thônes) : Face NW (hiver),Aravis,45.9295,6.3499,1100,N,S5,https://www.camptocamp.org/routes/1598752
Les Droites : Couloir Lagarde (voie Lagarde - Arsandaux),Mont-Blanc,45.9322,6.9948,2760,NE,S3,https://www.camptocamp.org/routes/1575923
Cime du Pisset : Depuis le Boréon,Mercantour,44.1006,7.3122,733,N,S3,https://www.camptocamp.org/routes/967008
Clochers d'Arpette : Couloir de la Dzeu,Mont-Blanc,46.0419,7.0765,1390,NE,S4,https://www.camptocamp.org/routes/966401
Clochers d'Arpette : Face NE,Mont-Blanc,46.0419,7.0765,1390,N,S5,https://www.camptocamp.org/routes/966394
Col  Laroussa : Par le vallon supérieur de l'Alpette,Mercantour,44.2737,7.0245,1010,NE,S3,https://www.camptocamp.org/routes/965818
Mont Saletta : Épaule 2600 m Couloir NW,Mercantour,44.2741,7.0253,1150,NO,S4,https://www.camptocamp.org/routes/965813
Cima delle Vallette : da Balboutet per versante S in salita e discesa parete E,Queyras,45.0696,6.9934,1200,E,S5,https://www.camptocamp.org/routes/963818
Pointes du Mouchillon : Faux Couloir NE Central,Belledonne,45.2635,6.0922,1050,NE,S5,https://www.camptocamp.org/routes/963682
Pointe de la Corne de Bouc : en boucle,Mercantour,44.0507,7.4956,1100,N,S3,https://www.camptocamp.org/routes/961099
Pointe Inférieure de Tricot : Face NE,Mont-Blanc,45.849,6.7896,1500,NE,S3,https://www.camptocamp.org/routes/958601
Rochers de Vallorin : Couloir du Natey en boucle depuis le sommet W,Belledonne,45.319,6.199,1540,NE,S4,https://www.camptocamp.org/routes/983555
L'Église de la Tour Sallière : Couloir E,Chablais,46.1581,6.8346,1000,E,S5,https://www.camptocamp.org/routes/982601
Grande Roche de Thiervoz : Couloir NE de droite,Belledonne,45.286,6.109,1370,NE,S5,https://www.camptocamp.org/routes/982263
Grande Roche de Thiervoz : Couloir NE de gauche,Belledonne,45.2854,6.1098,1370,NE,S4,https://www.camptocamp.org/routes/982200
La Lauzière : Versant N,Queyras,44.8044,6.9612,900,N,S3,https://www.camptocamp.org/routes/980194
La Lauzière : Versant S depuis la Monta,Queyras,44.774,6.9754,900,S,S3,https://www.camptocamp.org/routes/980186
Pointe de Dreveneuse : Couloir S,Chablais,46.2601,6.8913,1000,S,S5,https://www.camptocamp.org/routes/979476
Tête du Château : En boucle depuis Romme,Aravis,45.9904,6.5708,1000,NO,S3,https://www.camptocamp.org/routes/978724
Rochers de la Sueur : canale della grotta ramo destro,Thabor,45.0391,6.6706,750,NE,S5,https://www.camptocamp.org/routes/978678
Les Cluots : par Roubion-les-Buisses,Mercantour,44.0484,7.0062,800,NE,S1,https://www.camptocamp.org/routes/977669
Punta Gros Vallon : Da Chateau Beaulard per la canala,Thabor,45.0129,6.7562,1330,E,S4,https://www.camptocamp.org/routes/1408289
Pointe de la Petite Glière : Rampe S,Vanoise,45.4121,6.7983,1588,S,S5,https://www.camptocamp.org/routes/1407877
Aiguille Pers : Versant NW - Épaule N  ,Vanoise,45.4472,7.0548,1350,N,S4,https://www.camptocamp.org/routes/1406657
Tête du Claus : Directe Nord-Ouest,Mercantour,44.1839,7.2007,1350,NE,S5,https://www.camptocamp.org/routes/1405489
Brèche du Casset : versant S depuis Le Monetier,Thabor,44.9759,6.5096,1350,N,S3,https://www.camptocamp.org/routes/1404714
"Pointe du Châtel :  par Montzard, pente NNE",Grandes-Rousses,45.1803,6.255,1125,NE,S2,https://www.camptocamp.org/routes/1404373
Mont Aver : Traversée S>NW,Mercantour,44.2247,7.1478,1000,N,S4,https://www.camptocamp.org/routes/1403289
Mont Aiguille : Tour anti-horaire au plus près,Vercors,44.8449,5.5803,1700,N,S3,https://www.camptocamp.org/routes/1398204
Crête du vallon de Belle Combe -  pointe 2990 m : Circuit par le balcon supérieur du val Ferret,Mont-Blanc,45.838,7.0673,1810,S,S4,https://www.camptocamp.org/routes/1396857
Rochers du Ranc Traversier : Rampe Pagran,Vercors,44.9339,5.5197,960,N,S4,https://www.camptocamp.org/routes/1396522
Pointe de Méan Martin : depuis le Villaron - Bessans,Vanoise,45.3659,6.9856,1950,E,S3,https://www.camptocamp.org/routes/1525735
Pointe du Midi : Arête W et Couloir E,Mont-Blanc,46.0224,6.9898,500,O,S4,https://www.camptocamp.org/routes/1524068
Pointe du Sifflet : Couloir E de l’arête N ,Belledonne,45.2157,6.0175,1080,E,S4,https://www.camptocamp.org/routes/1522806
"Monte Ciaslaràs : en boucle : montée par la Valle del Maurin et le versant Nord, descente par le versant Sud et le Vallone dell'Infernetto",Queyras,44.5453,6.8823,1400,N,S3,https://www.camptocamp.org/routes/1519294
Pointe du Midi : Arête W et Face NE,Mont-Blanc,46.0224,6.9898,450,NE,S3,https://www.camptocamp.org/routes/1517187
Punta Faurì : Traversata da Bessen Haut a Pattemouche,Queyras,44.9055,6.9537,1100,N,S3,https://www.camptocamp.org/routes/1508919
Chamechaude : Face NW Directe,Chartreuse,45.2887,5.7854,758,NO,S4,https://www.camptocamp.org/routes/977456
Montagne de Sous-Dine : Sur Cou > Roche Parnal > Sous-Dine,Aravis,46.0053,6.3478,1650,E,S3,https://www.camptocamp.org/routes/977028
Rocce del Fraiteve,Queyras,44.9773,6.8624,1400,O,S3,https://www.camptocamp.org/routes/976750
Clot della Soma : da Pragelato lungo la pista del Clot,Queyras,44.988,6.9504,950,N,S3,https://www.camptocamp.org/routes/975392
"Tête de Vachères : Couloir S Parallèle, sortie directe",Devoluy,44.6737,5.7983,1220,SE,S3,https://www.camptocamp.org/routes/974589
Col de la Ruine : Traversée Genova → Boréon,Mercantour,44.1502,7.329,709,N,S3,https://www.camptocamp.org/routes/974511
Pointe Salvador : Couloir NE,Grandes-Rousses,45.1194,6.348,1000,N,S4,https://www.camptocamp.org/routes/828282
Rochers de l'Ours : par la Combe Noire,Vercors,45.0687,5.6055,860,O,S4,https://www.camptocamp.org/routes/974077
Pointe de Haute Béne : voie du Z,Chablais,46.1951,6.6357,1100,NO,S5,https://www.camptocamp.org/routes/973743
Aiguille de Montaubert - Couloir Lerouzic,Aravis,45.8187,6.318,817,E,S3,https://www.camptocamp.org/routes/973662
Tête de Vachères : Rampe suspendue SE,Devoluy,44.6737,5.7983,1185,SE,S4,https://www.camptocamp.org/routes/973270
Monte Rocciavrè : Gran Diedro S,Queyras,45.0488,7.1588,1050,S,S5,https://www.camptocamp.org/routes/1070651
Turge de la Suffie : Face SSW en traversée depuis le Laus,Queyras,44.8375,6.7769,1280,S,S3,https://www.camptocamp.org/routes/1068407
Roche Courbe : La Cicatrice,Devoluy,44.6983,5.8568,862,SE,S4,https://www.camptocamp.org/routes/1068264
Passage du Pic du Thabor : Boucle par le Col des Marches,Thabor,45.1516,6.5309,1700,E,S2,https://www.camptocamp.org/routes/1067305
Mont Pellard : Couloir SW,Grandes-Rousses,45.1665,6.3364,1300,SO,S4,https://www.camptocamp.org/routes/1066646
Monte Creusa : diretta pendio sud quota 2384,Mercantour,44.1682,7.5145,1050,S,S4,https://www.camptocamp.org/routes/1065392
Bec Baral : Da Limonetto,Mercantour,44.1819,7.5312,850,SE,S3,https://www.camptocamp.org/routes/1064311
Rocher d'Arguille : Versant SE,Belledonne,45.2769,6.1293,1817,SE,S5,https://www.camptocamp.org/routes/1057805
Dôme de Polset : Face SW en boucle depuis Val Thorens,Vanoise,45.2803,6.6126,1300,E,S4,https://www.camptocamp.org/routes/1016593
Roche du Vallon : depuis les Hières,Grandes-Rousses,45.0791,6.3329,1030,S,S3,https://www.camptocamp.org/routes/1012315
Col Supérieur des Essettes : Traversée Saleina → A Neuve par les 3 cols,Mont-Blanc,45.9594,7.0707,700,NO,S4,https://www.camptocamp.org/routes/1012066
Mont Blanc : Face SW de l'Arête des Bosses,Mont-Blanc,45.8334,6.8424,1750,SO,S5,https://www.camptocamp.org/routes/1004129
Aiguille des Grands Montets : Par le glacier des Rognons ,Mont-Blanc,45.9497,6.964,2000,NE,S3,https://www.camptocamp.org/routes/1381157
Pellafol - les payas : Canal de Pellafol,Devoluy,44.7978,5.9066,200,E,S1,https://www.camptocamp.org/routes/1380622
Casse Massion par Les Karellis,Grandes-Rousses,45.22,6.3795,833,E,S3,https://www.camptocamp.org/routes/1379312
Tête du Claus : Tour horaire,Mercantour,44.1823,7.1946,1300,E,S3,https://www.camptocamp.org/routes/1097953
Passo Tesina : Traversée Isola <> San Bernolfo,Mercantour,44.2346,7.0913,1000,E,S2,https://www.camptocamp.org/routes/1378263
Le Catogne - Le Bonhomme : Couloir de Frachay,Mont-Blanc,46.0437,7.1168,1000,SO,S4,https://www.camptocamp.org/routes/1377056
Sommet de Tourte Barreaux : par le pas de Chabrinel (et le Pison en été) depuis le vallon de Meyrosse / Romeyer,Vercors,44.817,5.493,1116,N,S2,https://www.camptocamp.org/routes/1375945
Croix de Cassini : Combe SE de la Grande Roche,Grandes-Rousses,45.073,6.1344,1080,S,S4,https://www.camptocamp.org/routes/1374468
Cime de Pal : en aller-retour depuis Estenc,Mercantour,44.2206,6.7953,1040,O,S3,https://www.camptocamp.org/routes/727593
Pointe du Van : Le Creux du Van,Mont-Blanc,46.0403,6.9763,1000,E,S3,https://www.camptocamp.org/routes/1373729
Cima Ostanetta : Da Ciampagna,Queyras,44.7287,7.2001,1050,S,S2,https://www.camptocamp.org/routes/1491627
Aiguilles d'Arpette - Pointe 2881 m : Arête E et couloir NE ,Mont-Blanc,46.0096,7.0721,900,NE,S4,https://www.camptocamp.org/routes/1488193
Glacier de la Brenva : Via le Col Oriental de la Tour Ronde,Mont-Blanc,45.8202,6.9133,500,S,S3,https://www.camptocamp.org/routes/1430608
Pointe de la Sana : Tour Sana - Femma - Méan Martin depuis Val d'Isère,Vanoise,45.3851,6.9176,2550,E,S3,https://www.camptocamp.org/routes/1418235
Pointe de Boccor / Bécor : Face NW,Chablais,46.2146,6.8109,970,E,S5,https://www.camptocamp.org/routes/1313153
Pointe de la Masse : Depuis les Ménuires par Vallon et Roche noire,Vanoise,45.2974,6.5081,1120,E,S3,https://www.camptocamp.org/routes/1312028
Col du Borgne : Traversée S-N en boucle depuis Méribel,Vanoise,45.3087,6.6127,1400,E,S2,https://www.camptocamp.org/routes/1310490
Pelvo : Dalla valle Argentera con discesa dal canale Morandini,Queyras,44.8812,6.8939,1450,N,S5,https://www.camptocamp.org/routes/1310489
Pointe de Pelluaz : Depuis Bernex : boucle Mt Baron - Pelluaz - lac de la Case,Chablais,46.3562,6.688,1190,E,S3,https://www.camptocamp.org/routes/1309005
Grande Epervière : versant NW,Queyras,44.447,6.6321,1500,NO,S2,https://www.camptocamp.org/routes/1306253
Le Pissoir : Couloir N du col du Pissoir,Mont-Blanc,46.0006,7.0124,2000,N,S4,https://www.camptocamp.org/routes/1302753
Les Rognes :  Couloir NW ,Mont-Blanc,45.8634,6.8051,1525,NO,S3,https://www.camptocamp.org/routes/1302446
Roche Nue : Couloir E,Vanoise,45.3314,6.6787,1550,E,S4,https://www.camptocamp.org/routes/1299117
Punta Rumella : Per la Meidija e la parete N ,Queyras,44.7321,7.2031,900,N,S5,https://www.camptocamp.org/routes/1299113
Collet de la Fourche :  Combe N par le camp des Rochilles,Thabor,45.0782,6.4697,1010,NO,S2,https://www.camptocamp.org/routes/1395336
Tête du Linga : Versant E,Chablais,46.2297,6.8211,820,E,S5,https://www.camptocamp.org/routes/1389863
Tour des Aiguilles d'Arves : Sens horaire à ski,Grandes-Rousses,45.1272,6.3366,2200,N,S2,https://www.camptocamp.org/routes/1384319
Crête des Blattes : Couloir ENE,Chablais,46.2729,6.7949,1076,NE,S5,https://www.camptocamp.org/routes/1383358
Petite Pointe des Planereuses : Couloir NE,Mont-Blanc,45.9757,7.0831,1800,N,S5,https://www.camptocamp.org/routes/1001388
Monte Peigrò - ant. 2662 : Da Giordano per il vallone del Giulian ed il pendio NO,Queyras,44.8458,7.0729,1180,NO,S3,https://www.camptocamp.org/routes/1001034
Roche Chevrière : Face SW,Vanoise,45.2849,6.7128,930,E,S2,https://www.camptocamp.org/routes/1000819
Rocher de la Sauma : Couloir SW,Thabor,45.0625,6.4837,1100,SO,S5,https://www.camptocamp.org/routes/998910
Dôme de Pramecou : Versant W,Vanoise,45.4343,6.8789,1200,O,S3,https://www.camptocamp.org/routes/998776
Face NE de Tardevant : Terre de vent,Aravis,45.9267,6.5258,950,N,S3,https://www.camptocamp.org/routes/996033
Grande Chible : Rampe NE,Grandes-Rousses,45.1912,6.3879,1311,NE,S4,https://www.camptocamp.org/routes/994617
Mont Pourri : Face S,Vanoise,45.5261,6.8254,2300,E,S3,https://www.camptocamp.org/routes/993593
Roche Colombe : Couloir S - depuis le Pont de l'Alpe,Thabor,45.0391,6.461,1122,S,S4,https://www.camptocamp.org/routes/990045
Pic de l'Agnelin : Face W,Belledonne,45.2266,6.1002,1560,O,S5,https://www.camptocamp.org/routes/986485
Chambairy / Hautagrive : Face N directe (couloir de l'Arche),Chablais,46.3389,6.8169,1200,N,S5,https://www.camptocamp.org/routes/986258
Tête de la Gipière : Face W par le Col de la Cayolle depuis Bayasse,Mercantour,44.264,6.7498,740,O,S2,https://www.camptocamp.org/routes/1090725
Punta Rasciassa / Testa Rossa : Dalle Meire Bigorie con discesa dalla parete Est,Queyras,44.6289,7.1541,1250,E,S5,https://www.camptocamp.org/routes/1090395
Refuge de Leschaux : Par les glaciers de la Mer de Glace et de Leschaux,Mont-Blanc,45.8949,6.981,750,N,S3,https://www.camptocamp.org/routes/1811790
Couloir N du col E de la Paré de Joux,Aravis,45.9179,6.5083,1000,NO,S4,https://www.camptocamp.org/routes/1088660
Rocher de la Salla : Couloir du Tchadar,Aravis,45.9268,6.5134,900,NO,S4,https://www.camptocamp.org/routes/1088650
Tête de Paccaly : De Fond en Combe,Aravis,45.9266,6.5135,1600,NO,S3,https://www.camptocamp.org/routes/1088206
Col des Fontaines : Combe S de Verdane,Belledonne,45.3154,6.172,1350,S,S3,https://www.camptocamp.org/routes/1087720
Tête Noire (Cerces) : Couloir NW du Sommet W,Thabor,44.9966,6.5365,1400,NO,S5,https://www.camptocamp.org/routes/1087404
Grand Eulier : Couloir et face SE,Belledonne,45.1373,5.9057,850,SE,S4,https://www.camptocamp.org/routes/1086709
"Tête de la Cavale de l'Obiou : Face ENE, l'Arche de la Cavale, par la combe de la Fuvelle",Devoluy,44.7675,5.8284,1647,E,S4,https://www.camptocamp.org/routes/1086101
Tête de Praorzel : Face E,Vercors,44.7779,5.5819,430,E,S3,https://www.camptocamp.org/routes/1084261
Briccas / Trucchet : Da Parco Montano di Rorà per Colle delle Porte e discesa Cresta del Camoscio,Queyras,44.7278,7.1799,1300,NO,S4,https://www.camptocamp.org/routes/1297217
Le Buclon : Couloir caché NE,Aravis,45.9864,6.4458,700,NE,S5,https://www.camptocamp.org/routes/1287284
Rocca Blanca : Tour anti-horaire depuis St Ours,Queyras,44.4989,6.8642,1410,E,S2,https://www.camptocamp.org/routes/1286879
Pic de Panestrel : Couloir E,Queyras,44.591,6.7959,1260,E,S5,https://www.camptocamp.org/routes/1285550
Pointe des Cirques : Couloir N,Queyras,44.5473,6.8659,1334,N,S4,https://www.camptocamp.org/routes/1285311
"Collette de Gilly : Traversée S-N, montée par la forêt.",Queyras,44.7963,6.96,850,E,S2,https://www.camptocamp.org/routes/1285268
Le Petit Ferrant : Couloir NE,Queyras,44.4615,6.4641,900,NE,S5,https://www.camptocamp.org/routes/1284534
Roche Rousse - Sommet S : Couloir E du Catex,Vercors,44.8965,5.5235,820,E,S5,https://www.camptocamp.org/routes/1284039
Pic Bunard : Face SW,Belledonne,45.2145,6.0823,1320,SO,S5,https://www.camptocamp.org/routes/1283758
Dômes de Miage par le couloir WSW de l'Aiguille de la Bérangère,Mont-Blanc,45.8054,6.7699,2400,SO,S4,https://www.camptocamp.org/routes/1283431
Pic de Jallouvre : Arête intégrale du gypaète poilu,Aravis,45.9962,6.4534,1100,SE,S5,https://www.camptocamp.org/routes/1283343
Pointe de Chaurionde : Arête N,Bauges,45.6869,6.2602,1080,N,S2,https://www.camptocamp.org/routes/1372639
Grand Rocher : versant E - depuis le Haut Bréda,Belledonne,45.3035,6.05,1050,E,S3,https://www.camptocamp.org/routes/1371666
Pointe du Mont : Depuis le Biot,Chablais,46.2647,6.6366,800,SO,S3,https://www.camptocamp.org/routes/1371289
Truc Bianco : Da Pian Regina per Sea delle Tampe e canale Nord,Queyras,44.6757,7.1191,1100,N,S3,https://www.camptocamp.org/routes/1370286
Roc des 3 marches depuis Mottaret,Vanoise,45.3674,6.5846,1015,E,S2,https://www.camptocamp.org/routes/1364899
Tête du Jas des Arres : Versant E,Devoluy,44.6663,5.8276,530,E,S2,https://www.camptocamp.org/routes/1351846
Le Pissoir : Le Couloir Caché Pointe 2974,Mont-Blanc,46.0006,7.0124,2200,NE,S4,https://www.camptocamp.org/routes/1324144
Col du Pissoir : Face N des Petoudes,Mont-Blanc,46.0046,7.0158,1720,N,S5,https://www.camptocamp.org/routes/1316558
Aiguille de Chambeyron : Couloir Gastaldi intégral,Queyras,44.5475,6.8562,1600,S,S5,https://www.camptocamp.org/routes/1315431
Punta Serpentiera : Dalla Valle Argentera alla quota 3161 per il Vallone Platte,Queyras,44.875,6.9096,1350,E,S4,https://www.camptocamp.org/routes/1313425
Le Grand Coin : Versant N par le chalet du Suiffet depuis la bergerie de la Ramasse,Thabor,45.2677,6.8973,830,NE,S3,https://www.camptocamp.org/routes/1313343
Pointe du Sifflet : versant SE depuis le Rivier d'Allemont,Belledonne,45.2133,6.0178,1020,SE,S3,https://www.camptocamp.org/routes/1082608
Pointe de Cugne : Par le col des Randouillards,Thabor,45.2686,6.8718,1600,NE,S3,https://www.camptocamp.org/routes/1082218
Pointe W de Darbon : rampe SE,Chablais,46.3414,6.7412,1170,SE,S3,https://www.camptocamp.org/routes/1081233
Le Belvédère (La Clusaz) : Versant N,Aravis,45.8709,6.4391,700,NO,S2,https://www.camptocamp.org/routes/1081005
Pointe d'Ireuse: couloir de l'Echelle,Chablais,46.2675,6.5748,800,N,S5,https://www.camptocamp.org/routes/1080753
Aiguille de Montaubert : Facette NE,Aravis,45.8236,6.3086,1037,NE,S4,https://www.camptocamp.org/routes/1079567
Aiguille de Borderan : Combe de Borderan,Aravis,45.8862,6.4773,1050,O,S2,https://www.camptocamp.org/routes/1078516
Pointe de Terre Rouge : Depuis le refuge de Terre Rouge > Col des Marches > Valmeinier,Thabor,45.1488,6.5619,1500,E,S3,https://www.camptocamp.org/routes/1072937
Crépon de Montoulivert : Face NW,Aravis,45.9961,6.3596,1100,NO,S4,https://www.camptocamp.org/routes/1072623
Pointe des Sagnes Longues : Versant S via la Chapelle de Clausis,Queyras,44.6826,6.9336,1030,S,S3,https://www.camptocamp.org/routes/1070880
Costa Glantin : Pendio Sud diretto,Queyras,45.0463,7.1553,1000,S,S5,https://www.camptocamp.org/routes/1070711
Grande Chalanche : Ravin de la ruine,Thabor,45.0273,6.6228,1000,S,S3,https://www.camptocamp.org/routes/1177181
Rocher de la Grande Tempête : Tour antihoraire,Thabor,45.0805,6.5586,1650,E,S3,https://www.camptocamp.org/routes/1173921
Col de l'Etroit du Vallon : Couloir W,Thabor,45.049,6.6063,1020,O,S3,https://www.camptocamp.org/routes/1172788
Pas de Chalanche Ronde : Versant NW,Thabor,45.0058,6.7373,1300,NO,S2,https://www.camptocamp.org/routes/1172444
Pointe du Demi : Versant SW,Thabor,45.004,6.5049,1327,SO,S3,https://www.camptocamp.org/routes/1172010
Mont Tondu - Pain de Sucre : Couloir SW,Beaufortain,45.7636,6.7516,2000,SO,S5,https://www.camptocamp.org/routes/1170538
La Patenaille : Couloir E en boucle,Chablais,46.178,6.8068,920,E,S4,https://www.camptocamp.org/routes/1161797
Boucle des 4 cols : Col Rouge → Col de Chanrouge → Col du Râteau → Col du Mône,Vanoise,45.3366,6.665,1810,N,S3,https://www.camptocamp.org/routes/1158127
"Tête des Toillies : Tour par les cols du Longet, Blanchet et de la Noire",Queyras,44.6548,6.9481,1900,N,S2,https://www.camptocamp.org/routes/1140027
Pointe d'Emy : Couloir Myosotis (W),Grandes-Rousses,45.1958,6.366,1100,NO,S5,https://www.camptocamp.org/routes/1115722
Aiguille d'Olle : Couloir SE,Belledonne,45.2441,6.1405,960,S,S5,https://www.camptocamp.org/routes/1114597
Le Toit : Couloir E en SY mineur,Belledonne,45.2318,6.0989,1000,E,S5,https://www.camptocamp.org/routes/1114267
"Col du Couvercle : Boucle par le passage de la Charmette, le mont des Acrays.",Beaufortain,45.6759,6.5783,1100,O,S3,https://www.camptocamp.org/routes/1273298
"TS du Grizzly, Pt 2287m : par les Verdaches, depuis Plan Peisey",Vanoise,45.5466,6.7888,660,N,S2,https://www.camptocamp.org/routes/1272716
Mont Lachat : Par le Planet descente versant NE,Mont-Blanc,45.8703,6.7961,1150,N,S3,https://www.camptocamp.org/routes/1270207
Aiguille de Braitaz : Le couloir des Pins,Chablais,46.3124,6.8273,715,N,S5,https://www.camptocamp.org/routes/1267731
Le Jocou : versant W,Vercors,44.7195,5.6415,451,S,S2,https://www.camptocamp.org/routes/1249823
"Mont Barral : Arête S, par la Crête de Jiboui",Vercors,44.7479,5.6176,503,O,S2,https://www.camptocamp.org/routes/1249802
Col de Chironne : Depuis le col de Vassieux,Vercors,44.8321,5.3705,100,N,S3,https://www.camptocamp.org/routes/1211409
But Saint-Genix : versant N depuis le Pas Bouillanain,Vercors,44.8303,5.3314,220,N,S2,https://www.camptocamp.org/routes/1211224
Col de Pendet : Versant NW,Belledonne,45.2715,6.0554,1175,N,S3,https://www.camptocamp.org/routes/1298956
Les Grandes Buffes : Couloir NW,Grandes-Rousses,45.0714,6.1141,515,NO,S4,https://www.camptocamp.org/routes/1297253
Pointe du Dzonfié : Couloir W,Beaufortain,45.5836,6.5697,1050,O,S4,https://www.camptocamp.org/routes/1097200
Pointe de l'Aliet : Couloir E,Vanoise,45.4971,6.8179,2000,E,S5,https://www.camptocamp.org/routes/1096297
Tête du Géant : Couloir E,Chablais,46.229,6.8384,900,E,S5,https://www.camptocamp.org/routes/1094859
Crête des Muandes : Traversée N > S,Thabor,45.0814,6.5354,750,NO,S3,https://www.camptocamp.org/routes/1092703
Aiguille des Glaciers : Couloir E en boucle par le versant SW,Mont-Blanc,45.7786,6.8103,2050,E,S5,https://www.camptocamp.org/routes/1210641
Grande Casse : Face N de l'épaule E,Vanoise,45.4051,6.8275,1460,N,S5,https://www.camptocamp.org/routes/1207213
Signal des Valloires : Versant NE,Belledonne,45.2982,6.1161,1348,E,S3,https://www.camptocamp.org/routes/1200791
Pic des Veyres : la pente à Georges,Queyras,44.6189,6.7792,1500,N,S5,https://www.camptocamp.org/routes/1753239
Pic du Frêne : Face E par le Col de la Vallette,Belledonne,45.3524,6.198,1700,E,S2,https://www.camptocamp.org/routes/1297123
Crête de Lacha : Couloir S en boucle,Thabor,45.0948,6.4597,1100,S,S4,https://www.camptocamp.org/routes/1194456
Couloir NE de la pointe des Cerces,Thabor,45.0707,6.4962,800,NE,S4,https://www.camptocamp.org/routes/1193048
Crête de la Ponsonnière E : Traversée Ricou - Drayères par le col du Chardonnet et les crêtes de la Ponsonnière,Thabor,45.0281,6.4948,1700,E,S3,https://www.camptocamp.org/routes/1192923
Couloir de l'Herpie,Grandes-Rousses,45.0958,6.1228,400,SO,S3,https://www.camptocamp.org/routes/1192260
Rochers Motas : La Goulotte ,Grandes-Rousses,45.1913,6.0902,1070,N,S3,https://www.camptocamp.org/routes/1296602
Pitre de l'Aigle : Da Villardamond per il Vallone ed il Colle della Vachera,Queyras,44.9939,6.8916,800,E,S2,https://www.camptocamp.org/routes/1748311
Cime de la Lombarde : Couloir N,Mercantour,44.2081,7.1632,1000,NO,S4,https://www.camptocamp.org/routes/1747701
Roc de la Charbonnière : Tour de la Pierra menta par le passeur de la Mintaz et le couloir E ,Beaufortain,45.5916,6.6709,1650,S,S4,https://www.camptocamp.org/routes/1745107
Tête de Baume Noire : Face N/NE par les Z,Devoluy,44.6402,5.9145,980,N,S5,https://www.camptocamp.org/routes/1745079
Pointe de la Porte d'Église : Couloir N occidental,Belledonne,45.2997,6.1328,1700,N,S4,https://www.camptocamp.org/routes/1743715
Montagne de Barges : Face NW du Point 2273m,Devoluy,44.6341,5.951,921,NO,S4,https://www.camptocamp.org/routes/1743308
Col du Brouillard : Couloir SW,Mont-Blanc,45.7974,6.8542,1400,SO,S4,https://www.camptocamp.org/routes/1743153
Pic de Bure : Face N/NE de Tête Noire,Devoluy,44.6269,5.9349,1030,N,S5,https://www.camptocamp.org/routes/1742689
Petit Rochebrune : Couloir NE,Queyras,44.8253,6.8467,1050,NE,S5,https://www.camptocamp.org/routes/1740303
La Pyramide : Couloir S,Belledonne,45.2359,6.1045,1103,S,S5,https://www.camptocamp.org/routes/638242
Col des Plines / Col Droit : Traversée Envers des Dorées - Le Tour,Mont-Blanc,45.9881,7.0243,393,E,S3,https://www.camptocamp.org/routes/632664
Pointe de Chésery : Face E,Chablais,46.2105,6.7984,950,E,S4,https://www.camptocamp.org/routes/701006
"Le Châtel ou Bonnet de Calvin : depuis Cordéac, par le col de la Brèche et l'arête sud",Devoluy,44.8109,5.8153,994,E,S4,https://www.camptocamp.org/routes/669350
Refuge du Plan des Gouilles : depuis Champagny le Haut,Vanoise,45.4595,6.7445,880,N,S3,https://www.camptocamp.org/routes/1795394
Col Infranchissable : Versant E,Mont-Blanc,45.8124,6.8084,1619,E,S5,https://www.camptocamp.org/routes/1833362
Croix de l'Alpe : Depuis la Rente par le col Bas,Mercantour,44.3654,6.7397,950,O,S3,https://www.camptocamp.org/routes/1832564
Pointe Croux : Voie Charlet - Devouassoux ,Mont-Blanc,45.9353,6.9569,2150,N,S3,https://www.camptocamp.org/routes/1820557
Le Petit Replomb : Versant E,Belledonne,45.2,5.9816,1300,NE,S3,https://www.camptocamp.org/routes/1853409
Pied Gros de Saint-Etienne : Face ESE suspendue,Devoluy,44.6465,5.9098,960,E,S5,https://www.camptocamp.org/routes/1749941
Tardevant : Voie Stéphane Brosse,Aravis,45.9302,6.5251,1100,NE,S3,https://www.camptocamp.org/routes/1750409
La Grande Roche Blanche : depuis Val Pelouse,Belledonne,45.4124,6.2117,1800,E,S3,https://www.camptocamp.org/routes/1750633
Pic de la Grande Valloire : Face W,Belledonne,45.2816,6.1288,1884,O,S3,https://www.camptocamp.org/routes/1833374
Grande Moucherolle : Traversée E>W,Vercors,45.0049,5.5641,1050,E,S5,https://www.camptocamp.org/routes/620321
Brèche Portetta : en boucle par le col du Biol,Vanoise,45.3794,6.6914,1345,NE,S5,https://www.camptocamp.org/routes/1296214
"Cimes du Grand Sauvage : Couloir S ""en baïonnette"" du Sommet 3049 m",Grandes-Rousses,45.1271,6.1653,1640,S,S3,https://www.camptocamp.org/routes/729513
Tête de Chau : Face E/NE,Devoluy,44.6353,5.9283,1031,E,S5,https://www.camptocamp.org/routes/1753310
Le Catogne : Couloir SW 'Directissime',Mont-Blanc,46.047,7.1007,1310,SO,S5,https://www.camptocamp.org/routes/1725323
Pointe du Dard : voie normale par le Col de la Vanoise,Vanoise,45.364,6.7658,1600,N,S2,https://www.camptocamp.org/routes/1723984
Roche Rousse - Sommet N : Couloir méridional E,Vercors,44.9033,5.5208,810,E,S5,https://www.camptocamp.org/routes/1718579
Bec de la Scia par les pistes de Saint Pierre de Chartreuse,Chartreuse,45.3488,5.8507,883,N,S3,https://www.camptocamp.org/routes/1716903
Tête des Follys : Traversée Follys Jottis depuis Mégevette,Chablais,46.1967,6.545,1000,E,S2,https://www.camptocamp.org/routes/715000
Grande Roche de Thiervoz : Couloir N,Belledonne,45.2871,6.1076,1370,N,S5,https://www.camptocamp.org/routes/713990
Les Aiguillettes de Vaujany : Couloirs S,Grandes-Rousses,45.1759,6.11,1200,S,S5,https://www.camptocamp.org/routes/723161
Pointe du Col : depuis Granier via La Pesée,Beaufortain,45.5712,6.6447,1000,NE,S2,https://www.camptocamp.org/routes/1294965
Grand Colon : Versant W par les Entonnoirs,Belledonne,45.1636,5.917,1265,O,S4,https://www.camptocamp.org/routes/736262
Mont Lachat : Par   Bellevue,Mont-Blanc,45.8711,6.7904,1125,SO,S3,https://www.camptocamp.org/routes/730620
Col des Courtes : Couloir NE,Mont-Blanc,45.9213,7.017,870,NE,S3,https://www.camptocamp.org/routes/751236
Aiguille Verte : Couloir Cordier,Mont-Blanc,45.9416,6.9716,1470,N,S3,https://www.camptocamp.org/routes/747385
Le Christomet : Versant NE par les pistes,Aravis,45.8666,6.5775,473,NE,S2,https://www.camptocamp.org/routes/838567
Pointe Ronde : Crête NE : La Veudale,Mont-Blanc,46.0526,7.0248,1465,N,S5,https://www.camptocamp.org/routes/838296
Tête du Parmelan : Brèche du 51,Aravis,45.9292,6.2513,900,SO,S4,https://www.camptocamp.org/routes/1294149
Pic Bunard : Face W Suspendue,Belledonne,45.2153,6.0806,1300,O,S4,https://www.camptocamp.org/routes/836267
Cima di Collalunga : per il vallone della Seccia,Mercantour,44.2421,7.0583,1478,NE,S2,https://www.camptocamp.org/routes/836217
Pic de Château Renard : Couloir N du Point 2930 m,Queyras,44.6987,6.9063,910,N,S4,https://www.camptocamp.org/routes/834951
Pic des Chalanches (Furfande) : Tour horaire,Queyras,44.7417,6.7089,1800,E,S4,https://www.camptocamp.org/routes/834582
Tête de la Cassille : Couloir W,Thabor,45.0434,6.4963,1360,O,S5,https://www.camptocamp.org/routes/832205
Roche des Marches : Versant W,Thabor,45.1628,6.5181,1070,O,S2,https://www.camptocamp.org/routes/831702
Punta Seras quota 2988,Queyras,44.6462,7.0009,1150,N,S4,https://www.camptocamp.org/routes/830060
Viso Mozzo : Canale N di Rocca Trune',Queyras,44.6749,7.1097,1350,N,S5,https://www.camptocamp.org/routes/829328
Cima Maciarone : Da Parco Montano Rorà da Pian Frollero per il pendio NE,Queyras,44.7487,7.1505,1250,N,S3,https://www.camptocamp.org/routes/1292496
La Petite Tête Noire : Depuis le refuge de la Blanche,Queyras,44.652,6.9402,540,N,S2,https://www.camptocamp.org/routes/1753081
Aiguille de Tricot : Face S,Mont-Blanc,45.8369,6.8078,2575,S,S5,https://www.camptocamp.org/routes/1833343
Aiguille de Bionnassay : Face NW - Diagonale du Goofy ,Mont-Blanc,45.8379,6.8193,2640,N,S3,https://www.camptocamp.org/routes/1833106
Aiguille de Leschaux : Voie historique 1927,Mont-Blanc,45.8877,7.0048,1800,O,S3,https://www.camptocamp.org/routes/1832782
Aiguille de Pierre Joseph : Pointe supérieure - Couloir N,Mont-Blanc,45.9012,6.9959,1672,N,S3,https://www.camptocamp.org/routes/1832700
Pointe S de Bézin : Depuis le Pont de la Neige,Vanoise,45.3812,7.0077,616,N,S2,https://www.camptocamp.org/routes/1788895
Ouille de la Jave : Face NW,Vanoise,45.3984,7.0283,339,NO,S3,https://www.camptocamp.org/routes/1788417
Mont Blanc : Voie de la Sentinelle Rouge ,Mont-Blanc,45.8314,6.8787,1800,SE,S3,https://www.camptocamp.org/routes/1772143
"Pic N de la Font Sancte : Épaule E, couloir NE du bloc coincé",Queyras,44.6045,6.7997,1384,NE,S4,https://www.camptocamp.org/routes/1769564
Pointe E d'Arpire : Couloir NW,Beaufortain,45.6816,6.6863,1200,N,S5,https://www.camptocamp.org/routes/1769404
Aiguille du Grand Fond : Couloir NE,Beaufortain,45.6666,6.671,1300,E,S5,https://www.camptocamp.org/routes/1769401
"Pic N de la Font Sancte : point 3292, Euphorie Ephémère",Queyras,44.6045,6.7997,1600,N,S3,https://www.camptocamp.org/routes/1767998
Tour du Bric de Rubren de Saint-Véran.,Queyras,44.6194,6.9497,2075,E,S2,https://www.camptocamp.org/routes/682685
Pointe Feuillette : via le Rognon,Devoluy,44.7145,5.7183,1850,S,S3,https://www.camptocamp.org/routes/681295
Le Saint Eynard : Depuis le col de Vence,Chartreuse,45.2342,5.7561,550,O,S3,https://www.camptocamp.org/routes/677737
Col de la Croix des Frêtes : Tour de l'Aiguille Noire,Vanoise,45.4549,6.8453,800,NE,S2,https://www.camptocamp.org/routes/673509
Sommet de la Querlaye : Versant NNW - Forêt de Marassan,Queyras,44.7782,6.916,1350,N,S3,https://www.camptocamp.org/routes/669640
Monts Jovet : Couloir N de la Pointe N (2468 m),Mont-Blanc,45.772,6.738,1278,N,S4,https://www.camptocamp.org/routes/653948
Pointe du Malpasset : Couloir NW,Devoluy,44.7724,5.8342,1400,E,S4,https://www.camptocamp.org/routes/639172
Aiguilles de la Pennaz : Variante du couloir NE,Beaufortain,45.7448,6.6987,1110,NE,S5,https://www.camptocamp.org/routes/703477
Petit Galibier : Versant S,Grandes-Rousses,45.0532,6.4133,750,S,S3,https://www.camptocamp.org/routes/726397
Les Raies des Follys : Face N,Chablais,46.2118,6.6169,900,N,S4,https://www.camptocamp.org/routes/725188
Têtes de Tré la Tête : Variante du Couloir NW >> Grande Roche de Tré la Tête,Mont-Blanc,45.798,6.7652,1500,NO,S3,https://www.camptocamp.org/routes/724174
"Traversée des arêtes du Dou de Moûtiers, Mont Jovet, Roc du Bécoin, Roc des Verdons",Vanoise,45.493,6.663,1500,E,S2,https://www.camptocamp.org/routes/723731
Crête du lac Noir : col NW,Belledonne,45.2919,6.1377,1800,NO,S3,https://www.camptocamp.org/routes/729588
Fort de l'Infernet : face NNE,Queyras,44.8961,6.687,1007,N,S3,https://www.camptocamp.org/routes/728314
Tête de la Lauze : par le Vallon des Vaches,Queyras,44.4388,6.8335,650,E,S2,https://www.camptocamp.org/routes/728290
Bric La Plata : da Croesio,Queyras,44.6238,7.2638,1100,N,S2,https://www.camptocamp.org/routes/727846
Refuge de Lognan : Depuis Argentière,Mont-Blanc,45.9843,6.9293,827,E,S1,https://www.camptocamp.org/routes/1721346
Pointe de l'Aup du Pont : Brèche Villonet / L'Aup du Pont,Belledonne,45.3172,6.1856,1700,N,S4,https://www.camptocamp.org/routes/1720740
Col du Chardonnet N : Du refuge du Chardonnet,Thabor,45.0311,6.505,500,NE,S3,https://www.camptocamp.org/routes/1719347
Pointe de Combe Bénite : Couloir NE,Beaufortain,45.5946,6.6153,1250,NE,S4,https://www.camptocamp.org/routes/1718935
Col des Désertes : versant W depuis Plampinet,Thabor,45.0014,6.742,1070,NO,S3,https://www.camptocamp.org/routes/727584
Pic du Longet : Versant NE par la Petite Cime,Thabor,45.0047,6.6114,985,N,S3,https://www.camptocamp.org/routes/727269
Aiguille du Midi des Grands : En boucle par le Col de la Croix des Berons et descente glacier des Grands,Mont-Blanc,46.0066,6.9936,1960,N,S3,https://www.camptocamp.org/routes/727150
Cime de la Coste du Col / Monte Viraysse : depuis larche,Queyras,44.4628,6.8666,1160,S,S2,https://www.camptocamp.org/routes/726880
Couloir du Pas de Gonson,Vercors,45.13,5.4922,560,N,S4,https://www.camptocamp.org/routes/1718823
Pic de la Corne : La Lanche aux Veaux,Chablais,46.2514,6.6979,900,NO,S5,https://www.camptocamp.org/routes/1718432
Pointe de Combe Bénite : Face SE,Beaufortain,45.5946,6.6153,1190,S,S3,https://www.camptocamp.org/routes/1718220
Brec de Chambeyron : Vire Jean Coste ,Queyras,44.5293,6.8517,1500,NO,S3,https://www.camptocamp.org/routes/1717410
Aiguille de Bionnassay : Face SW - Élan de cœur ,Mont-Blanc,45.8351,6.816,1320,SO,S3,https://www.camptocamp.org/routes/1716442
Grand Veymont : Versant N - couloir de la raie des fesses (ou de l'avion),Vercors,44.8698,5.5266,1100,N,S4,https://www.camptocamp.org/routes/1714675
Pointe des Trois Communes : Depuis Baisse de Camp d'Argent,Mercantour,44.001,7.4331,600,O,S3,https://www.camptocamp.org/routes/1725053
Les Follys de Lens : Combe N,Chablais,46.2396,6.7572,515,N,S4,https://www.camptocamp.org/routes/1722622
Aiguille de la Bérangère : Couloir W des Têtes de Tré la Tête,Mont-Blanc,45.8003,6.7433,1733,O,S5,https://www.camptocamp.org/routes/707170
Rochers de la Balme : Traversée des Crêtes,Vercors,45.0052,5.5345,1000,O,S2,https://www.camptocamp.org/routes/706685
Pointe de Combe Bénite : Versant SE - Descente SW par la Pesée,Beaufortain,45.5897,6.6082,1400,SE,S3,https://www.camptocamp.org/routes/715145
Passage de la Grande Forclaz : Par la combe de Tré Le Crot et la gorge de l'Arrondine,Aravis,45.9253,6.5344,900,SE,S3,https://www.camptocamp.org/routes/714747
Col de Granon : par le bois de Granon,Thabor,44.9661,6.6419,900,NE,S2,https://www.camptocamp.org/routes/714010
Mont Forchat : Boucle par l'Oratoire des Moises et Très la Paraz,Chablais,46.2738,6.4881,550,O,S3,https://www.camptocamp.org/routes/713338
Grand Charvia : Par les Replattes de l'Aigle,Queyras,44.9184,6.738,850,N,S2,https://www.camptocamp.org/routes/713168
Laus de Cervières > col des Ourdeis > Brunissard (la Draye) > Col de l'Izoard > le Laus,Queyras,44.8364,6.7185,1200,E,S3,https://www.camptocamp.org/routes/712597
Le Pissoir : Couloir du Glacier,Mont-Blanc,46.0069,7.021,1700,NE,S4,https://www.camptocamp.org/routes/1297917
Grand Parpaillon : en circuit par le Crachet et l'Infernet - depuis le col de Vars,Queyras,44.494,6.6517,1985,E,S3,https://www.camptocamp.org/routes/1296059
Mont Chéry : par le Mont Caly,Chablais,46.1693,6.6482,636,S,S1,https://www.camptocamp.org/routes/1254380
Aiguille de l'A Neuve : Couloir E,Mont-Blanc,45.9533,7.0396,2070,E,S5,https://www.camptocamp.org/routes/1211898
Bergerie du Jas Neuf : Jas Neuf SE,Vercors,44.7877,5.5209,210,SO,S3,https://www.camptocamp.org/routes/1211185
Bergerie du Jas Neuf : Jas Neuf ENE,Vercors,44.8014,5.4952,25,NE,S1,https://www.camptocamp.org/routes/1211181
Tête de Charousse : par les chalets de Neuteu,Chablais,46.3473,6.7643,1100,NO,S3,https://www.camptocamp.org/routes/1270335
Cime de la Bercha : Petit Tour d'Auron,Mercantour,44.2363,6.9028,1410,E,S2,https://www.camptocamp.org/routes/1269749
Roche d'Étache : Face E,Thabor,45.1861,6.8576,1400,E,S5,https://www.camptocamp.org/routes/1189122
Col NW du Grand Queyras : Versant NE,Queyras,44.7183,6.951,1345,N,S3,https://www.camptocamp.org/routes/1189039
Col Vieux (d'Abriès) : depuis le Roux d'Abriès,Queyras,44.8338,6.9846,920,O,S2,https://www.camptocamp.org/routes/1189009
Colle Manzol : Traversée Pian della regina - Refuge Granero,Queyras,44.7009,7.1166,1400,N,S2,https://www.camptocamp.org/routes/1188287
La Grosse Tête : Versant E,Belledonne,45.3849,6.2062,1030,E,S3,https://www.camptocamp.org/routes/1186984
Tête de la Boucharde : Depuis Estenc,Mercantour,44.2745,6.7584,750,S,S3,https://www.camptocamp.org/routes/1186447
Tour du Vallaisonnay,Vanoise,45.4779,6.8282,4127,E,S3,https://www.camptocamp.org/routes/1295721
Aiguille du Goûter : Face NE et Couloir N,Mont-Blanc,45.851,6.8312,2560,NE,S4,https://www.camptocamp.org/routes/1293826
Col du Prorel : Traversée S → N,Thabor,44.9343,6.5858,760,N,S3,https://www.camptocamp.org/routes/1278755
Arête des Saix : par  Doran,Aravis,45.9621,6.5841,881,N,S2,https://www.camptocamp.org/routes/1276371
Cima delle Vallette : Da Pian del Frais in traversata con discesa dalla Comba Scura,Queyras,45.0696,6.9934,1250,N,S3,https://www.camptocamp.org/routes/1282722
Monte Borel : Da San Giacomo,Queyras,44.3748,7.1938,1000,S,S2,https://www.camptocamp.org/routes/1279727
Col de Buffère : Versant S,Thabor,44.9786,6.5542,987,S,S3,https://www.camptocamp.org/routes/1182485
Crête de Jambe Route : Tour du Pic de Cros,Queyras,44.7861,6.7106,1300,NE,S4,https://www.camptocamp.org/routes/1182105
Le Grand Miceau :  Face E,Belledonne,45.3724,6.2141,1230,E,S4,https://www.camptocamp.org/routes/1177232
Pic de Maloqueste : Par le Bois de Ségure,Queyras,44.7532,6.9587,1150,NO,S2,https://www.camptocamp.org/routes/1189220
Les Hauts-Forts : Couloir de l'antenne,Chablais,46.1587,6.7668,1150,S,S4,https://www.camptocamp.org/routes/1096822
Dôme des Pichères : Gros glacier,Vanoise,45.4918,6.7983,2000,N,S5,https://www.camptocamp.org/routes/1093421
Le Gros Grenier : Traversée versant SE - Pellard - Pierre Fendue,Grandes-Rousses,45.1543,6.361,1500,SE,S3,https://www.camptocamp.org/routes/1106267
"Passage de la Pissine : Versant E, depuis le refuge de Terre Rouge",Thabor,45.1178,6.5008,650,E,S2,https://www.camptocamp.org/routes/1103599
Du Col de Balme au refuge Albert 1er par les Herbagères,Mont-Blanc,46.0137,6.983,1500,NE,S3,https://www.camptocamp.org/routes/1103112
Col du Midi des Grands : En boucle depuis le Tour,Mont-Blanc,46.0022,7.0062,1450,O,S3,https://www.camptocamp.org/routes/1100576
L'Envers du Mont Joly,Beaufortain,45.8298,6.6974,200,SE,S3,https://www.camptocamp.org/routes/1279162
Col de la case d'Oche : Pas de Darbon : Couloir S,Chablais,46.3149,6.691,1080,S,S4,https://www.camptocamp.org/routes/1278919
Roc d'Enfer : Accès à l'arête entre le sommet E et sommet principal,Chablais,46.1844,6.6228,667,N,S5,https://www.camptocamp.org/routes/1083057
Tête de Glaudon : Épaule E,Mercantour,44.3096,6.7812,710,N,S3,https://www.camptocamp.org/routes/1090706
Pointe de Vorlaz : Couloir SE direct,Chablais,46.1863,6.7749,1200,SE,S5,https://www.camptocamp.org/routes/988647
Pointe du Petit Vallon : Épaule N par la face W,Thabor,45.1726,6.8354,1500,O,S3,https://www.camptocamp.org/routes/988012
Crête des Crocs : Couloir E,Vercors,45.0761,5.6086,200,E,S4,https://www.camptocamp.org/routes/986589
Rochers de Vallorin : Versant S,Belledonne,45.3096,6.2195,1000,N,S4,https://www.camptocamp.org/routes/997968
Traversée entre les refuges de Buffère et du Chardonnet,Thabor,45.0176,6.5481,400,N,S2,https://www.camptocamp.org/routes/995474
Bec de Lachat : Face W,Mont-Blanc,45.9864,6.9572,700,O,S3,https://www.camptocamp.org/routes/1389820
Pic de Panestrel : Couloir E de gauche,Queyras,44.5889,6.796,1250,NE,S5,https://www.camptocamp.org/routes/1285288
Col du Fort : Traversée Combe de la Frèche > Combe de Lachat,Belledonne,45.4054,6.2113,1045,S,S2,https://www.camptocamp.org/routes/1289464
Bric de Rubren : Tour depuis Malajsset,Queyras,44.6203,6.9482,1350,N,S2,https://www.camptocamp.org/routes/1288295
Pointe de la Terrasse :  couloir NE ,Beaufortain,45.6703,6.7247,1600,NE,S5,https://www.camptocamp.org/routes/1288132
Traversée des Aravis S - Charvin au col des Aravis,Aravis,45.8024,6.4202,2800,E,S5,https://www.camptocamp.org/routes/1286569
Grande Roche de Tré la Tête : Couloir des Contaminés ,Mont-Blanc,45.8007,6.7401,1350,NO,S5,https://www.camptocamp.org/routes/1286292
Pointe de Lavouet : Versant W,Beaufortain,45.661,6.506,725,E,S2,https://www.camptocamp.org/routes/1083238
Pointe de la Sitre : A/R par Habert du mousset,Belledonne,45.1836,5.9506,1500,NO,S3,https://www.camptocamp.org/routes/1083150
Pointe du Gargoton : Couloir SW central,Belledonne,45.4206,6.2121,1260,SO,S4,https://www.camptocamp.org/routes/1082263
Monte Vallonetto anticima 2699 : da Pattemouche per il Colle del PIS,Queyras,44.9888,6.9687,1250,O,S4,https://www.camptocamp.org/routes/1081229
Arête des Aiguillettes / Pointe de la Crottaz : couloir N,Chablais,46.3131,6.6447,830,N,S5,https://www.camptocamp.org/routes/1079569
Le Pissoir : Glacier des Pétoudes,Mont-Blanc,46.0006,7.0124,2000,NE,S3,https://www.camptocamp.org/routes/1314083
Grand Roc Noir : Épaule S par Lanserlia ,Vanoise,45.3303,6.8919,1330,E,S3,https://www.camptocamp.org/routes/1313273
Crête des Plagnes : depuis le Collet d'Allevard,Belledonne,45.3834,6.1492,750,S,S3,https://www.camptocamp.org/routes/1371217
Roche de Méaudre : Versant E,Vercors,45.1278,5.4924,630,E,S2,https://www.camptocamp.org/routes/1369728
Pointe Melchior : Par le Pas de la Galline et le vallon froid,Thabor,45.0718,6.6322,1248,S,S3,https://www.camptocamp.org/routes/1360948
Dent de Crolles et Dôme de Bellefont en boucle depuis Perquelin,Chartreuse,45.3081,5.8553,1600,E,S3,https://www.camptocamp.org/routes/1264782
" Contrefort Dômes de la Sache et des Platières, couloir N (couloir Sandro)",Vanoise,45.5109,6.8705,2000,O,S5,https://www.camptocamp.org/routes/1257165
Col du Grand Sauvage : Combe NW,Grandes-Rousses,45.156,6.1676,1100,NO,S4,https://www.camptocamp.org/routes/1166019
Tour horaire de la pointe de Chésery,Chablais,46.2092,6.8076,1000,E,S3,https://www.camptocamp.org/routes/1162550
Aiguille de Terrassin : Directe N le couloir sans issue,Beaufortain,45.671,6.7321,1600,N,S5,https://www.camptocamp.org/routes/1175203
Mont Thabor : par la vallée de la Neuvache depuis Valmeinier,Thabor,45.1145,6.5394,1500,O,S3,https://www.camptocamp.org/routes/1172865
Tête de Jacquette : Versant SW,Queyras,44.6763,6.8248,1100,N,S3,https://www.camptocamp.org/routes/1073340
Sur Gemet : Couloir NW,Chablais,46.2987,6.6542,600,NO,S4,https://www.camptocamp.org/routes/1071498
Lac du Lauzon (Arvieux) :  depuis le Coin ,Queyras,44.7729,6.731,630,O,S3,https://www.camptocamp.org/routes/1490461
Col des Aravis : Crête de Boustera,Aravis,45.8696,6.4634,500,N,S3,https://www.camptocamp.org/routes/1489636
Pointe Gaspard : Par le vallon froid ,Thabor,45.0781,6.6432,1050,NO,S3,https://www.camptocamp.org/routes/1473554
Pointe des Roches : Versant NW par le Glacier des Roches,Vanoise,45.3669,7.0101,800,NO,S3,https://www.camptocamp.org/routes/1470650
La Bastille : Face E,Chartreuse,45.1996,5.7256,278,E,S3,https://www.camptocamp.org/routes/1459405
Ouille de la Jave : Couloir SE,Vanoise,45.394,7.0239,1000,SE,S4,https://www.camptocamp.org/routes/1374623
Tête de Lanchenaire / Lantsenaire : Couloir NNW,Chablais,46.3365,6.7844,1400,NO,S4,https://www.camptocamp.org/routes/1374502
Pointe Ratti : Depuis La Villiaz par le col de la Basse,Chablais,46.1868,6.642,650,S,S3,https://www.camptocamp.org/routes/1374253
Pointe des Ecandies : Couloir NNE,Mont-Blanc,46.0151,7.0395,1350,N,S5,https://www.camptocamp.org/routes/1307920
L'Étale : Injection l’Étale,Aravis,45.8492,6.4493,1000,E,S3,https://www.camptocamp.org/routes/1459060
Le Revard : Versant E,Bauges,45.6795,5.9783,78,E,S2,https://www.camptocamp.org/routes/1457937
Pointe des Grands : Arête NW et face N,Mont-Blanc,46.0032,6.9898,900,N,S4,https://www.camptocamp.org/routes/1423380
Col d'Entrèves : Face SE,Mont-Blanc,45.8408,6.9139,200,SE,S4,https://www.camptocamp.org/routes/1415019
Dôme des Glaciers : Couloir NW de l'Epaule SW,Mont-Blanc,45.7774,6.7897,900,NO,S5,https://www.camptocamp.org/routes/1413057
Pic de la Belle Étoile : Traversée par col du Vouteret ,Belledonne,45.2386,6.045,1300,N,S4,https://www.camptocamp.org/routes/1412105
Col de Longet (Haute Ubaye) : Versant Italien,Queyras,44.6457,6.9656,900,NE,S3,https://www.camptocamp.org/routes/1492345
Pointe des Marcelettes : l'Automnière- couloir N,Queyras,44.6863,6.862,900,N,S3,https://www.camptocamp.org/routes/1394516
Pointe de la Pierre : Couloir NW,Belledonne,45.357,6.1995,1880,NO,S5,https://www.camptocamp.org/routes/1393102
Pointe Yeld : Traversée W → NE,Mont-Blanc,45.8658,6.9436,350,NE,S4,https://www.camptocamp.org/routes/1390280
Dent du Géant : Face S,Mont-Blanc,45.8617,6.9514,550,S,S4,https://www.camptocamp.org/routes/1307441
Mont Malinvern : Fly high again,Mercantour,44.1986,7.1888,1500,N,S5,https://www.camptocamp.org/routes/1305659
Col des Fours :  depuis Bonneval sur Arc,Vanoise,45.3934,7.0069,1300,S,S2,https://www.camptocamp.org/routes/1299369
Mont Malinvern : Grand Tour Vermeil-Portettes,Mercantour,44.1822,7.2048,2000,N,S3,https://www.camptocamp.org/routes/1312638
"Combe de Bella Cha, Point 2390 m : Col minimal",Aravis,45.9024,6.5064,1030,NO,S3,https://www.camptocamp.org/routes/1309071
Croix de Fer : Couloir W,Mont-Blanc,46.0494,6.9786,1050,O,S5,https://www.camptocamp.org/routes/1385252
Traversée Plan de la Lai - les Granges (Hauteluce) par le Col de la Sauce et les Rochers des Enclaves,Beaufortain,45.7118,6.6947,1300,N,S3,https://www.camptocamp.org/routes/1384923
Contrefort E du col de Tardevant : Circuit de la croix des Frettes,Aravis,45.8362,6.4514,1900,E,S4,https://www.camptocamp.org/routes/1384388
Pointe Ronde : Arête NW et couloir E,Mont-Blanc,46.0391,7.0235,1128,O,S4,https://www.camptocamp.org/routes/1382919
Brèche N du Mouchillon : Couloir E,Belledonne,45.2674,6.0911,900,E,S4,https://www.camptocamp.org/routes/1381700
Haut de Marlens : Versant NW ,Aravis,45.8066,6.4096,680,E,S3,https://www.camptocamp.org/routes/1396284
Haut de Marlens : Versant W,Aravis,45.8066,6.4096,270,E,S3,https://www.camptocamp.org/routes/1395104
"Rochers du Parquet - Peyre Rouge : Couloir en Y, branche méridionnale E/SE",Vercors,44.8388,5.5299,970,E,S5,https://www.camptocamp.org/routes/1394550
"Les Hauts-Forts : Point 2224 - Couloir SSE ""Poil aux Chiens"" ",Chablais,46.1685,6.7777,1200,SE,S5,https://www.camptocamp.org/routes/1401029
Col de Chaude Maison :  Traversée W → N,Queyras,44.8412,6.7745,1085,O,S3,https://www.camptocamp.org/routes/1399954
Le Revard : couloir du téléphérique,Bauges,45.6832,5.9723,880,O,S5,https://www.camptocamp.org/routes/1410082
Ciarmetta : Selle 2550 m versant S,Queyras,44.5099,6.9631,1030,S,S2,https://www.camptocamp.org/routes/980166
Cugno dell'Alpet : da Alpe Colombino con discesa dalla SE e ritorno,Queyras,45.0025,7.2465,1200,E,S4,https://www.camptocamp.org/routes/979048
Refuge du Goléon : Par le lac du Pontet et l'Aiguillon,Grandes-Rousses,45.056,6.3298,1000,S,S3,https://www.camptocamp.org/routes/977482
Col de la Vache : Versant E,Belledonne,45.232,6.0669,1300,S,S4,https://www.camptocamp.org/routes/960227
Rocher de Cerdosse : Couloir NE,Beaufortain,45.627,6.6584,1026,NE,S4,https://www.camptocamp.org/routes/958816
Cime des Torches ou Grand Agnelin : Boucle Petit Agnelin - Chanin,Grandes-Rousses,45.1511,6.2503,1600,NE,S3,https://www.camptocamp.org/routes/1509743
Aiguille Large de Mary : Vallon de Mary -> Couloir des Militaires,Queyras,44.5738,6.8532,900,E,S4,https://www.camptocamp.org/routes/1525704
Pointe de Chombas : Versant N de la brèche NE de Chombas,Aravis,45.949,6.5461,1000,N,S3,https://www.camptocamp.org/routes/1524893
Le Roignais : Couloir SE ,Beaufortain,45.643,6.6886,1730,SE,S5,https://www.camptocamp.org/routes/1524387
Pointe Salvador : et grand Tour d'Argentière,Grandes-Rousses,45.1164,6.3397,3000,E,S4,https://www.camptocamp.org/routes/1520302
Col de la Charrat : Versant E,Grandes-Rousses,45.0745,6.3838,1200,E,S3,https://www.camptocamp.org/routes/1520299
Roc du Château d'Oche : Rampe de Darbon,Chablais,46.347,6.7441,1100,E,S4,https://www.camptocamp.org/routes/1403120
Antécime de la Lause 2720 : Couloir NW,Mercantour,44.1876,7.2009,1300,NO,S5,https://www.camptocamp.org/routes/1401887
Col de Coux : Depuis l'Érigné,Chablais,46.1496,6.7714,720,O,S1,https://www.camptocamp.org/routes/973292
Le Gerbier : Face NW,Mercantour,44.3752,6.8058,1170,NO,S3,https://www.camptocamp.org/routes/973244
Passo di Lausa Bruna : Par le vallon de Binec,Mercantour,44.2813,7.1099,1250,N,S3,https://www.camptocamp.org/routes/976044
Pointe des Adrets : Par le versant E,Grandes-Rousses,45.1435,6.4045,870,E,S3,https://www.camptocamp.org/routes/975068
Colletto Pan Perdù : Traversée Malinvern - Livio Bianco,Mercantour,44.2316,7.2195,1200,E,S3,https://www.camptocamp.org/routes/1518242
Pré Charvin : Couloirs N,Belledonne,45.3948,6.2091,1150,NE,S5,https://www.camptocamp.org/routes/1513489
Petit Clocher des Planereuses : Couloir NE «  Le Big crack de Saleinaz »,Mont-Blanc,45.9787,7.077,1450,NE,S5,https://www.camptocamp.org/routes/1512373
Château Queyras : Haute route des Escartons,Queyras,44.8361,6.7218,3165,S,S1,https://www.camptocamp.org/routes/1510627
Costa Rouit : Da Bessen Bas,Queyras,44.9249,6.9338,1200,S,S3,https://www.camptocamp.org/routes/1373595
Mont Charvet (Aravis) : Couloir E,Aravis,45.9425,6.5389,1600,E,S4,https://www.camptocamp.org/routes/1380899
Saix de Mens : Par les chalets de Mens,Chablais,46.3251,6.7655,640,S,S3,https://www.camptocamp.org/routes/1377348
Pointe de Vouerca : Versant S,Chablais,46.2303,6.8169,820,S,S3,https://www.camptocamp.org/routes/1065252
Couloir Barrioz de Saint Sorlin d'Arves,Grandes-Rousses,45.2136,6.1902,800,NE,S3,https://www.camptocamp.org/routes/1037821
Peyre-Niere : versant NW depuis Aiguille,Queyras,44.7558,6.9003,1625,N,S4,https://www.camptocamp.org/routes/1069613
Refuge de la Coire >> Refuge de Balme par le Mont Coin et le Passeur de Mintaz,Beaufortain,45.6298,6.6377,837,E,S3,https://www.camptocamp.org/routes/1067025
Raids dans le Beaufortain : Traversée S > N De Granier à Notre-Dame de la Gorge,Beaufortain,45.6706,6.6933,3560,E,S4,https://www.camptocamp.org/routes/974006
Colle di Ciaslaras : Traversée du Refuge Campo Base à Maljasset,Queyras,44.5479,6.8792,1700,N,S3,https://www.camptocamp.org/routes/972167
Pointe Fine : Boucle vallon de Bachasse > Versant E,Queyras,44.4376,6.7067,1100,E,S4,https://www.camptocamp.org/routes/971467
L'Arpillon : Versant N,Queyras,44.4644,6.706,1000,E,S3,https://www.camptocamp.org/routes/971321
Du col du Palet au vallon de la Sache,Vanoise,45.4564,6.8808,700,E,S2,https://www.camptocamp.org/routes/875370
Col de la Sana : En traversée du vallon de la Lesse au vallon du Manchet,Vanoise,45.4277,6.908,430,E,S3,https://www.camptocamp.org/routes/875366
Roche d'Étache : En traversée NW > N,Thabor,45.1962,6.848,1420,NO,S4,https://www.camptocamp.org/routes/884089
Mont Chaberton : Tour de la pointe des Trois Scies,Thabor,44.9613,6.737,1850,NO,S4,https://www.camptocamp.org/routes/882935
Pointe de Chésery : Face S,Chablais,46.2163,6.783,1150,S,S4,https://www.camptocamp.org/routes/880797
Cima Dormillouse : Couloir N 2944,Queyras,44.868,6.83,1400,N,S3,https://www.camptocamp.org/routes/1498647
Pointe de Bellevue : depuis Troistorrents (Croix-du-Nant),Chablais,46.2407,6.9075,1333,SE,S2,https://www.camptocamp.org/routes/1498226
La Foilleuse / Pointe de Savolaire :  depuis Troistorrent par l'alpage de Savolaire,Chablais,46.2301,6.884,1053,E,S2,https://www.camptocamp.org/routes/1498147
Crête de Dormillouse : Versant N,Queyras,44.8727,6.8254,1525,N,S2,https://www.camptocamp.org/routes/1497932
Roc de Tovière : Par la piste de ski de rando,Vanoise,45.4658,6.9478,552,E,S3,https://www.camptocamp.org/routes/1506345
Pointe Ronde : Face SSW et couloir des Arolles,Mont-Blanc,46.0305,7.0168,1173,S,S4,https://www.camptocamp.org/routes/1503409
Pointe de Ressachaux : Les Fangles,Chablais,46.177,6.7428,1100,N,S5,https://www.camptocamp.org/routes/969450
Sex du Palatieu : Versant S,Chablais,46.3255,6.8294,600,E,S4,https://www.camptocamp.org/routes/968291
Trélod : Pop ,Bauges,45.6889,6.2002,1200,E,S3,https://www.camptocamp.org/routes/1575846
Pointe des Arses : Versant SW,Vanoise,45.3979,7.0624,1350,SO,S3,https://www.camptocamp.org/routes/1605842
Dôme de la Girotte : Voie normale par la Montaz et la Commanderie,Beaufortain,45.7597,6.6387,776,O,S1,https://www.camptocamp.org/routes/1604229
Crête de Mouchillon : Sommet NW - Couloir E,Belledonne,45.256,6.096,1310,E,S4,https://www.camptocamp.org/routes/1604198
Crête de Mouchillon : Versant W,Belledonne,45.2558,6.0911,1530,N,S3,https://www.camptocamp.org/routes/1604145
Pointe de Rouellettaz : Crête des Annes,Aravis,45.9647,6.5272,1000,N,S3,https://www.camptocamp.org/routes/1601592
Roche Courbe : da Bousson,Queyras,44.9188,6.8114,610,N,S2,https://www.camptocamp.org/routes/1499812
"Le Châtelet : Antécime W, couloir SW",Mont-Blanc,45.995,7.0909,1315,SO,S5,https://www.camptocamp.org/routes/1499472
Col Blanchet : Depuis le refuge de la Blanche,Queyras,44.6603,6.9544,400,NO,S2,https://www.camptocamp.org/routes/967838
Les Grands Moulins : Couloir de la première.,Belledonne,45.406,6.1938,1300,O,S5,https://www.camptocamp.org/routes/966203
Pic du Lauzun (pointe 2776) : Versant E,Vanoise,45.2803,6.5522,600,E,S4,https://www.camptocamp.org/routes/1598698
Grand Som : Face W,Chartreuse,45.3704,5.8119,1100,O,S5,https://www.camptocamp.org/routes/1598360
Cime de Caron : Versant SE,Vanoise,45.2601,6.5609,2300,S,S3,https://www.camptocamp.org/routes/1597505
Col de l'Évêque  : Versant W,Belledonne,45.2447,6.0466,800,O,S4,https://www.camptocamp.org/routes/1593749
Télésiège de la Breya - Grands Plans : par la combe de la Breya,Mont-Blanc,46.0303,7.0988,700,N,S3,https://www.camptocamp.org/routes/1593582
Monte Matto - Cime E : Traversée Livio Bianco -> Valasco par le val Cabrera,Mercantour,44.2264,7.2563,1400,S,S4,https://www.camptocamp.org/routes/1589605
Aiguille Rousse : Couloir NE en boucle,Grandes-Rousses,45.1976,6.1807,800,NE,S4,https://www.camptocamp.org/routes/1541136
Pointe Occidentale de l'Épéna : Couloir SE de gauche,Vanoise,45.3961,6.7763,1800,SE,S5,https://www.camptocamp.org/routes/946195
Pointe du Haut Fleury : Traversée Pointe de Véran > Pointe de Perret,Chablais,46.1469,6.5649,640,E,S2,https://www.camptocamp.org/routes/945222
Plaine de Darbounousse : De Bois Barbu,Vercors,44.9838,5.4674,744,E,S2,https://www.camptocamp.org/routes/913946
"Aiguille de Polset : Boucle par le col de Thorens et le glacier de Gebroulaz, retour par le col du Borgne",Vanoise,45.2847,6.6212,1500,N,S3,https://www.camptocamp.org/routes/886067
Tête du Géant : Face S,Chablais,46.2256,6.8029,1000,S,S5,https://www.camptocamp.org/routes/958506
Le Pain de Sucre : Couloir N,Chablais,46.1929,6.6355,840,N,S5,https://www.camptocamp.org/routes/953954
La Riondaz : Depuis la Savatte,Aravis,45.8129,6.3946,500,O,S1,https://www.camptocamp.org/routes/862720
"Tête N des Bresses : Couloir N ""Zen""",Mercantour,44.174,7.2452,2000,E,S5,https://www.camptocamp.org/routes/1535504
Roche de l'Abisse : Couloir N,Mercantour,44.1434,7.5041,1375,N,S5,https://www.camptocamp.org/routes/1535175
"Monte Carbone : Versant NE, par le Vallone Lavassè",Mercantour,44.1602,7.4302,1700,N,S3,https://www.camptocamp.org/routes/1535151
"La Mitre : Couloir SE ""secoue bidou""",Thabor,45.1249,6.4471,450,SE,S5,https://www.camptocamp.org/routes/1531243
Pointe de Claret et Aiguille de Méan Martin depuis la Femma,Vanoise,45.342,6.9711,1500,NO,S3,https://www.camptocamp.org/routes/1525817
Pointe de Friolin :  Couloir des crasses du moulin ,Vanoise,45.5135,6.7641,1400,E,S5,https://www.camptocamp.org/routes/1562968
"Col S de Bellecôte, traversée E -> W",Vanoise,45.4631,6.7921,1216,S,S3,https://www.camptocamp.org/routes/1551306
Col de la Roche Noire :  traversée SE -> NW,Vanoise,45.4313,6.8138,901,S,S3,https://www.camptocamp.org/routes/1551296
Petite Pointe d'Orny : Couloir NW par le Col des Chamois,Mont-Blanc,46.006,7.0375,1500,N,S5,https://www.camptocamp.org/routes/1626461
Cima d'Orgials : Versant E par le Pas du Loup,Mercantour,44.2184,7.1734,1500,S,S4,https://www.camptocamp.org/routes/1625890
Aiguille d'Argentière : Stratonsphérique ,Mont-Blanc,45.9596,7.0151,2050,SO,S3,https://www.camptocamp.org/routes/1625099
Dent du Loup : Couloir NW,Chablais,46.342,6.7801,1271,NO,S5,https://www.camptocamp.org/routes/1624107
Someceon du Dru : Couloir SE,Mont-Blanc,46.0228,7.0401,1223,SE,S4,https://www.camptocamp.org/routes/1622852
Quota 2663 San Giacomo : Da Bessen Haut e traversata a Sestriere,Queyras,44.9366,6.9056,800,N,S4,https://www.camptocamp.org/routes/1622661
Baraque forestière des Rognes : Par la moraine de Bionnassay et Désert de Pierre Ronde,Mont-Blanc,45.8634,6.8093,1400,NO,S3,https://www.camptocamp.org/routes/1622535
Refuge de Plan Glacier : Par les Chalets de Miage,Mont-Blanc,45.8323,6.7965,1700,O,S3,https://www.camptocamp.org/routes/1622459
Col du Chardonnet S (Cerces) : Depuis le Pont de l'Alpe,Thabor,45.0274,6.4798,700,O,S2,https://www.camptocamp.org/routes/880720
Cimes de la Cochette : Grand Couloir N Coudé de la Cime 3241m,Grandes-Rousses,45.17,6.1489,1860,N,S3,https://www.camptocamp.org/routes/1621788
Aiguille du Fruit : Face W ,Vanoise,45.354,6.6329,930,O,S5,https://www.camptocamp.org/routes/1621260
Montagne Pellat : face W,Queyras,44.5152,6.6353,1007,O,S5,https://www.camptocamp.org/routes/1621010
Le Ferrouillet : Couloir N suspendu ,Belledonne,45.2067,5.9971,1200,N,S3,https://www.camptocamp.org/routes/1620517
Tête de Colombe :  face NE depuis le Pont de l'Alpe,Thabor,45.0505,6.453,1350,NE,S3,https://www.camptocamp.org/routes/1620310
Pointe SW du Châtelard : Couloir S,Vanoise,45.3318,6.955,1170,S,S4,https://www.camptocamp.org/routes/1618667
Roc de Burel : Couloir S,Vanoise,45.3169,6.9148,1425,S,S4,https://www.camptocamp.org/routes/1618656
Cheval Blanc : Tour,Thabor,45.1349,6.5727,1017,E,S2,https://www.camptocamp.org/routes/869615
Col des Muandes : Refuge des Drayères >> Refuge Terzo Alpini,Thabor,45.0907,6.5674,704,SE,S2,https://www.camptocamp.org/routes/869215
Sommet de Bellecôte : couloir Valençant face N de Bellecôte,Vanoise,45.491,6.7483,2700,N,S4,https://www.camptocamp.org/routes/867729
Haute Route Chamonix - Zermatt : Par La Fouly et l'Hospice du Grand St Bernard,Mont-Blanc,45.7477,6.9283,8270,N,S3,https://www.camptocamp.org/routes/867573
Grande Lauzière : Boucle par le cirque de la Grande Vaudaine,Belledonne,45.1539,5.9595,2630,E,S3,https://www.camptocamp.org/routes/866428
Tête de la Cula : Par le vallon du Cristillan,Queyras,44.6512,6.8956,1100,SO,S3,https://www.camptocamp.org/routes/874316
Tour Pointe S de Bézin > Col des Fours,Vanoise,45.3913,6.9999,1600,E,S3,https://www.camptocamp.org/routes/874264
Bric Content : Par le vallon de Roccetta,Queyras,44.4309,6.9528,1250,E,S4,https://www.camptocamp.org/routes/872880
Aiguille de Bionnassay : Face NW - Voie des Pisteurs ,Mont-Blanc,45.8382,6.8091,2640,N,S5,https://www.camptocamp.org/routes/1607342
Tête de Crépine : Traversée N>S,Mercantour,44.2524,6.7365,1200,N,S2,https://www.camptocamp.org/routes/1618530
Grand Gendarme d'Envers du Plan : Couloir E ,Mont-Blanc,45.8899,6.9153,1000,E,S3,https://www.camptocamp.org/routes/1617371
Triangle SE : Face SE,Queyras,44.8177,6.7903,1400,SE,S4,https://www.camptocamp.org/routes/1617252
"Pointe du Dzonfié : Par le Nant du Beurre, col des Rochers Blancs et arête N, descente face SW",Beaufortain,45.5851,6.5715,1130,N,S3,https://www.camptocamp.org/routes/1616399
Pointe de Leisette : Couloir S,Beaufortain,45.6493,6.6976,1580,S,S4,https://www.camptocamp.org/routes/1612486
Pointe de Leisette : Couloir NE,Beaufortain,45.6493,6.6976,1580,N,S4,https://www.camptocamp.org/routes/1612473
Le Petit Ferrant : Couloir N du bloc coincé,Queyras,44.4615,6.4641,865,N,S4,https://www.camptocamp.org/routes/1611492
Grandes Jorasses - Pointe Croz : Face S,Mont-Blanc,45.8687,6.9827,2600,S,S3,https://www.camptocamp.org/routes/1705108
Grandes Jorasses - Pointe Hélène : Face S ,Mont-Blanc,45.8681,6.9799,1200,S,S3,https://www.camptocamp.org/routes/1704935
"Mont Blanc : Versant W - Destiné sauvage, seuls mais accompagnés",Mont-Blanc,45.8253,6.8648,3100,O,S3,https://www.camptocamp.org/routes/1687612
L'Étale - Pointe NW : L'horreur du Bib ,Aravis,45.8522,6.4454,1237,N,S3,https://www.camptocamp.org/routes/1674203
Aiguille du Midi : Friendo ou l'œil de cristal ,Mont-Blanc,45.8811,6.8898,1,N,S3,https://www.camptocamp.org/routes/1673964
Joug de l'Aigle : Couloir NW en boucle,Queyras,44.4539,6.4819,920,NO,S4,https://www.camptocamp.org/routes/1609708
Crête de Mazelière - Pointe 2572 m : Couloir E,Queyras,44.4734,6.5294,912,E,S4,https://www.camptocamp.org/routes/1607793
"Cime de la Bonette : Versant NW, par le Vallon de Restefond",Mercantour,44.3216,6.807,1080,NO,S3,https://www.camptocamp.org/routes/1607623
Col de Stroppia : Par le vallon de Plate Lombarde,Queyras,44.5062,6.8593,970,O,S2,https://www.camptocamp.org/routes/861457
Sommet de Château Jouan / Janus : Face N directe,Queyras,44.9097,6.7086,800,N,S5,https://www.camptocamp.org/routes/861102
Pan de Rideau du Grand Fond : Face NW,Beaufortain,45.6717,6.6766,730,NO,S4,https://www.camptocamp.org/routes/1652471
Mont Blanc du Tacul : Face N intégrale,Mont-Blanc,45.8621,6.8739,950,N,S5,https://www.camptocamp.org/routes/1651166
Rocher Blanc : Couloir W de l'arête S,Belledonne,45.2448,6.1173,1300,O,S3,https://www.camptocamp.org/routes/1648886
Tour du Grand Séru,Thabor,45.107,6.5791,1100,E,S3,https://www.camptocamp.org/routes/1641883
Roche de Janatan : Couloir E,Beaufortain,45.57,6.5949,900,E,S2,https://www.camptocamp.org/routes/1710880
Pic de Peyre Eyraute : Face SW,Queyras,44.8228,6.6298,1400,SO,S3,https://www.camptocamp.org/routes/1705184
Selle de la Lavoire : En traversée depuis le col de La Lavoire,Belledonne,45.3291,6.2203,1600,E,S3,https://www.camptocamp.org/routes/851448
Selle de la Lavoire : Combe NE,Belledonne,45.3346,6.2092,1409,NE,S3,https://www.camptocamp.org/routes/851443
Tour de la cime du mercantour depuis le Boréon,Mercantour,44.1589,7.2755,1882,S,S3,https://www.camptocamp.org/routes/851441
"Mont Mounier : De Vignols, par le mont des Moulines et le mont Démant",Mercantour,44.1436,6.9797,1300,SE,S2,https://www.camptocamp.org/routes/853728
Col des Trois Pointes : Versant NE,Grandes-Rousses,45.1198,6.3523,1370,N,S4,https://www.camptocamp.org/routes/853696
Col de la Lauze (Aiguilles en Queyras) : traversée Abriès - Aiguilles,Queyras,44.7717,6.9069,1010,N,S3,https://www.camptocamp.org/routes/853164
Pointe du Midi : Arête Ouest et Face Nord,Mont-Blanc,46.0276,6.9866,1328,N,S4,https://www.camptocamp.org/routes/824105
Pointe de Tigneux : Epaule W de la pointe 2168 m - Versant SW,Belledonne,45.3096,6.1129,1060,O,S3,https://www.camptocamp.org/routes/821194
Baisse du Lauzanier : Traversée Larche - Bousieyas,Queyras,44.3702,6.8587,1100,E,S3,https://www.camptocamp.org/routes/1632167
Pointe de l'Eyssina : en traversée S-W depuis le Col de Vars,Queyras,44.5467,6.6778,1240,N,S3,https://www.camptocamp.org/routes/1629461
Aiguille du Passon : Couloir NE,Mont-Blanc,45.9766,6.9927,1900,NE,S5,https://www.camptocamp.org/routes/1628923
Pointe des Fires : Descente du col du Bouaz,Chablais,46.3382,6.7523,1076,E,S4,https://www.camptocamp.org/routes/1627207
Tête de la Costasse : Face S par le Col Mercière,Mercantour,44.1834,7.1931,700,S,S3,https://www.camptocamp.org/routes/1626876
Gran Truc : Da Linsard,Queyras,44.8921,7.1412,1100,N,S4,https://www.camptocamp.org/routes/1639106
Mont Clapier : Couloir SE,Mercantour,44.1148,7.4202,1450,N,S3,https://www.camptocamp.org/routes/1635409
Le Rocce di San Giacomo : Da Bessén Haut,Queyras,44.9332,6.8823,800,O,S1,https://www.camptocamp.org/routes/1632938
Crêt d'Ornon : Versant N,Grandes-Rousses,45.2021,6.2398,598,N,S2,https://www.camptocamp.org/routes/1728564
Pointe de Prosom : Versant WSW,Mont-Blanc,46.0244,7.0249,1600,SO,S5,https://www.camptocamp.org/routes/1728128
Mont Charvet (Aravis) : Couloir NE,Aravis,45.9425,6.5389,1900,NE,S4,https://www.camptocamp.org/routes/1738646
Monte Pignerol : Face E depuis le Refuge Troncea - Retour Pattemouche,Queyras,44.9187,6.9923,961,E,S3,https://www.camptocamp.org/routes/1737066
Rocher Gris : Couloir dérobé ,Belledonne,45.2884,6.1305,1700,O,S5,https://www.camptocamp.org/routes/1736906
Grand Bérard : Face E,Queyras,44.4495,6.66,1340,E,S3,https://www.camptocamp.org/routes/1736546
Pointe des Excellences : Rendez nous Popo,Belledonne,45.1902,5.9796,1500,NO,S4,https://www.camptocamp.org/routes/1735396
Les Chalets du Sire : Depuis Le Sire,Bauges,45.6315,5.9671,93,NO,S1,https://www.camptocamp.org/routes/1735028
Pic de la Corne : Lanches NW,Chablais,46.245,6.6796,1084,NO,S4,https://www.camptocamp.org/routes/844283
Pointe de Paumont : Arête S depuis Bardonnecchia,Thabor,45.1133,6.7216,1800,S,S3,https://www.camptocamp.org/routes/843905
Mont Pélago : Couloir NE « L’Arche de Laurette »,Mercantour,44.1249,7.3124,1300,NE,S5,https://www.camptocamp.org/routes/840184
le Mounioz : Couloir E en traversée,Thabor,45.1374,6.6059,1150,E,S5,https://www.camptocamp.org/routes/839639
Pic du Jaillon : Face NE,Queyras,44.7677,6.7013,1150,NE,S5,https://www.camptocamp.org/routes/1733364
Dent d'Oche : Couloir Michel,Chablais,46.3549,6.7183,750,NO,S5,https://www.camptocamp.org/routes/1732817
Montagne de Sulens : Petit couloir SW ,Aravis,45.8281,6.3699,540,SO,S3,https://www.camptocamp.org/routes/1729810
Testa delle Novelle : versant S,Mercantour,44.2442,7.1954,1600,SO,S3,https://www.camptocamp.org/routes/1729249
Col des Droites : Face N,Mont-Blanc,45.9346,6.9985,1020,N,S3,https://www.camptocamp.org/routes/751285
Le Galeteau : Face NE,Belledonne,45.1634,5.9389,1270,NE,S5,https://www.camptocamp.org/routes/750631
Pointe de la Vallaisonnay : Descente par le col de Roche Noire,Vanoise,45.4542,6.7974,1600,NE,S4,https://www.camptocamp.org/routes/750398
Anello Vallone di Collalunga →  Testa dell'Autaret → Cima di Collalunga → Valle di Seccia,Mercantour,44.2393,7.0357,1650,N,S3,https://www.camptocamp.org/routes/750232
Aiguille Rouge : Par les pistes et le glacier du Varet,Vanoise,45.5518,6.8486,1100,N,S3,https://www.camptocamp.org/routes/749386
Aiguille de Chambeyron : Couloir Jean Coste,Queyras,44.5702,6.8494,1400,N,S3,https://www.camptocamp.org/routes/748589
Gran Guglia : pendio NO,Queyras,44.8324,7.0279,1150,NO,S4,https://www.camptocamp.org/routes/759157
Col de la Combe Madame : Versant S,Belledonne,45.2339,6.1281,865,S,S3,https://www.camptocamp.org/routes/758913
Brec de Chambeyron : Couloir Bujon,Queyras,44.5322,6.8537,1420,N,S5,https://www.camptocamp.org/routes/748587
Brec de Chambeyron : Couloir N,Queyras,44.5269,6.829,1510,N,S3,https://www.camptocamp.org/routes/748585
Punta Gioffredo : par S.Bernolfo.,Mercantour,44.2648,7.0234,1310,SE,S4,https://www.camptocamp.org/routes/747182
Col d'Aussois : Traversée S >> N depuis le refuge du Fond d'Aussois,Vanoise,45.2854,6.6841,600,E,S2,https://www.camptocamp.org/routes/746975
Dôme de Chasseforêt : Traversée N (glacier de Roche Ferran) → E,Vanoise,45.3472,6.7816,1200,E,S3,https://www.camptocamp.org/routes/746967
Grand Roc : Face S direct depuis col de la Masse,Vanoise,45.2654,6.6881,400,S,S3,https://www.camptocamp.org/routes/745926
Col de la Sache : Vallon de la Sache,Vanoise,45.4769,6.885,1000,E,S3,https://www.camptocamp.org/routes/745811
La Truche / la Foilleuse : depuis Morgins,Chablais,46.2304,6.8579,600,N,S3,https://www.camptocamp.org/routes/751463
Col du Lauzon : Tour anti-horaire du Pic de Balart,Queyras,44.7843,6.6947,970,E,S2,https://www.camptocamp.org/routes/824809
Aiguille des Saints Pères : Couloir W - Y de Droite,Vanoise,45.2706,6.6075,1200,O,S5,https://www.camptocamp.org/routes/834601
Punta della Mulattiera : Da Puys,Thabor,45.0372,6.7139,1250,N,S3,https://www.camptocamp.org/routes/834144
Mont du Borgne : Face S et Arête NE,Vanoise,45.2982,6.6088,900,S,S3,https://www.camptocamp.org/routes/833368
Pointe Ronde : Face NW et Chenau,Mont-Blanc,46.0449,7.0097,1325,O,S5,https://www.camptocamp.org/routes/832613
Pointe Mathews : Face SW,Vanoise,45.3911,6.8113,1270,SO,S5,https://www.camptocamp.org/routes/838656
Passo della Sometta : Per il Vallone di Tesina e discesa in Val Sauma,Mercantour,44.2542,7.0644,1100,N,S2,https://www.camptocamp.org/routes/835480
Punta Sibolet : Depuis Tolosano (voie normale),Queyras,44.4113,7.1328,1060,O,S2,https://www.camptocamp.org/routes/835112
Traversée de la Vanoise : de Modane à Pralognan,Vanoise,45.3249,6.7116,3300,E,S3,https://www.camptocamp.org/routes/803359
Tête de Vachères : Face NW - Voie NIW,Devoluy,44.6745,5.7776,1240,NO,S5,https://www.camptocamp.org/routes/802228
Depuis Méribel par le col des Fonds,Vanoise,45.2984,6.6545,1220,N,S3,https://www.camptocamp.org/routes/796831
Depuis Méribel par le col du Soufre,Vanoise,45.3264,6.6259,1150,N,S3,https://www.camptocamp.org/routes/796824
Pointe du Grand Vallon : Versant W,Vanoise,45.321,6.8709,1440,O,S3,https://www.camptocamp.org/routes/831184
Bric del Mezzogiorno (Punta del Beth) : Versante W dal rifugio Troncea,Queyras,44.9612,6.9654,1396,O,S3,https://www.camptocamp.org/routes/830105
Pic des Chalanches : Couloir NE,Queyras,44.8051,6.6801,983,NE,S4,https://www.camptocamp.org/routes/829799
Petite Moucherolle : depuis le Clos de la Balme,Vercors,45.0032,5.559,925,NO,S3,https://www.camptocamp.org/routes/826250
Pointe de la Léchère : Versant W depuis Champéry,Chablais,46.1598,6.8257,1550,O,S3,https://www.camptocamp.org/routes/733300
Mont Freide : couloir SW,Queyras,44.5263,6.9362,1325,SO,S4,https://www.camptocamp.org/routes/733102
Tête de Bossetan / Bostan : Rampe des Chamois,Chablais,46.1422,6.7781,1200,N,S4,https://www.camptocamp.org/routes/732887
Lac de Trécolpas : Depuis le Boréon,Mercantour,44.1157,7.3403,750,E,S2,https://www.camptocamp.org/routes/732666
Monte Estelletta : Depuis Chialvetta,Queyras,44.4548,6.979,822,N,S2,https://www.camptocamp.org/routes/740834
Grand Morétan : Tour horaire - depuis les Roches,Belledonne,45.3085,6.1603,2200,E,S3,https://www.camptocamp.org/routes/740607
Fenêtre du Tour : Par le col du  Passon,Mont-Blanc,45.9789,7.0055,950,O,S3,https://www.camptocamp.org/routes/740361
Bric Cassin - Cime SE : Versant SW,Queyras,44.4205,6.9956,1143,E,S3,https://www.camptocamp.org/routes/740349
Aiguille Percée : Par les pistes,Vanoise,45.4837,6.8891,1198,NE,S3,https://www.camptocamp.org/routes/732184
Crêt d'Ornon : Versant E,Grandes-Rousses,45.2021,6.2398,540,E,S2,https://www.camptocamp.org/routes/730655
Grande Lauzière : Classique du Z,Belledonne,45.1684,5.9386,1650,N,S4,https://www.camptocamp.org/routes/730365
Pic du Grand Domènon : Face N,Belledonne,45.162,5.9712,1800,E,S4,https://www.camptocamp.org/routes/730276
Tête Rougnouse de la Guercha : par le Vallon du Lausfer.,Mercantour,44.2145,7.0685,1500,NO,S3,https://www.camptocamp.org/routes/729831
Tête de la Cluse : Par la traversée héroïque et la Combe Ratin,Devoluy,44.6309,5.8915,1340,NE,S3,https://www.camptocamp.org/routes/738009
"Grand Charvia : Face S, de Cervières",Queyras,44.8869,6.7369,1012,S,S3,https://www.camptocamp.org/routes/737215
Péouvou : face sud,Queyras,44.6306,6.8826,1230,S,S4,https://www.camptocamp.org/routes/735550
"La Patenaille : Le tour, descente par le Pas de Chavanette",Chablais,46.1779,6.807,1000,E,S3,https://www.camptocamp.org/routes/763909
Le Toit : Couloir E (méridionnal),Belledonne,45.2282,6.1193,875,E,S5,https://www.camptocamp.org/routes/763682
Le Toit : Couloir NE (septentrionnal),Belledonne,45.2282,6.1193,900,NE,S5,https://www.camptocamp.org/routes/763664
Pointe des Mossettes : Couloirs E de la croix,Chablais,46.1878,6.8266,600,E,S3,https://www.camptocamp.org/routes/763657
Cimes de la Cochette : Couloir NE occidental de la Cime 3241 m,Grandes-Rousses,45.1815,6.1204,1860,NE,S5,https://www.camptocamp.org/routes/761298
Rocher Pilliozan : Couloir N,Belledonne,45.2267,6.12,780,N,S5,https://www.camptocamp.org/routes/760889
Aiguille Verte : Voie Washburn,Mont-Blanc,45.9397,6.9767,1470,NE,S3,https://www.camptocamp.org/routes/732618
Roc d'Enfer : Face NW du Creux des Neiges,Chablais,46.1997,6.6078,1125,NO,S3,https://www.camptocamp.org/routes/732271
Testa di Tablasses : da Terme di Valdieri giro per il Passo di Tablasses con discesa dal canale NW.,Mercantour,44.1912,7.2534,1678,NO,S4,https://www.camptocamp.org/routes/757879
Crêt du Rey : Arête SW et Face N - depuis le Mappaz,Beaufortain,45.6013,6.5991,1350,N,S4,https://www.camptocamp.org/routes/757824
Pointe de la Réchasse : Versant SE depuis Termignon (route du plan du Lac),Vanoise,45.3512,6.8156,2000,SE,S4,https://www.camptocamp.org/routes/753019
Monte Niblè : Da Grange della Valle,Thabor,45.1286,6.8921,1550,SO,S3,https://www.camptocamp.org/routes/752523
Pointe Joanne / Cime de la losette : Par le col de Valante,Queyras,44.6868,7.0609,1150,E,S4,https://www.camptocamp.org/routes/752396
Roca del Castello : Par la montagne de Motte,Queyras,44.6916,7.0523,600,N,S3,https://www.camptocamp.org/routes/752306
Pélaou Blanc : Depuis le Pont de la Neige - face W et col des Fours (itinéraire classique d'été),Vanoise,45.3955,7.0088,700,O,S4,https://www.camptocamp.org/routes/769349
Aiguille N de Tré la Tête (ou Tête Blanche) : Traversée NW → S,Mont-Blanc,45.7945,6.8101,1600,NO,S4,https://www.camptocamp.org/routes/766365
Le Môle : les friches NW du Môle,Chablais,46.1026,6.4466,1100,NO,S5,https://www.camptocamp.org/routes/720927
Col Sans Nom : depuis Fouillouse,Queyras,44.4924,6.8379,750,NO,S3,https://www.camptocamp.org/routes/719664
Pic de la Farnéiréta : couloir NE,Queyras,44.6557,6.935,700,NE,S4,https://www.camptocamp.org/routes/712313
Pointe de Lavouet : Couloir E en boucle,Beaufortain,45.6665,6.5232,1250,E,S4,https://www.camptocamp.org/routes/709952
Grand Cimon de Rabuons : Couloir W,Mercantour,44.277,6.9863,472,O,S3,https://www.camptocamp.org/routes/709927
Crête de la Plagne Vaumard : Couloirs SW Jumeaux,Belledonne,45.273,6.1057,1610,SO,S4,https://www.camptocamp.org/routes/708791
Crête de la Plagne Vaumard : Pointe 2419 m - Couloir SW Occidental,Belledonne,45.273,6.1057,1320,SO,S4,https://www.camptocamp.org/routes/708344
Aiguille de Roselette : Couloir N en Z,Beaufortain,45.7795,6.6827,284,N,S4,https://www.camptocamp.org/routes/707689
Pic de la Grande Valloire : Valmaure/Tépey/Passage Brabant/La Marmottane /Col de la Croix/Col du Sambuis/Retour à Valmaure,Belledonne,45.274,6.1596,2200,E,S3,https://www.camptocamp.org/routes/715980
Crête de l'Arpette : Versant SW,Belledonne,45.2873,6.0889,1380,SO,S3,https://www.camptocamp.org/routes/715261
Col W du Fort : Versant N,Belledonne,45.4094,6.2052,1630,NO,S3,https://www.camptocamp.org/routes/715184
Aiguille de Chanrossa : Versant N,Vanoise,45.3684,6.6635,1220,N,S4,https://www.camptocamp.org/routes/723507
Dou de Moûtiers : par la face N et le mont des Archets,Vanoise,45.5014,6.617,1500,N,S4,https://www.camptocamp.org/routes/723357
Dent de Ratier : du vallon de Fontouse au vallon de Furfante,Queyras,44.7529,6.7316,1050,N,S3,https://www.camptocamp.org/routes/723353
Col de Serenne : Boucle freerando depuis Ste Marie,Queyras,44.5713,6.7548,340,E,S2,https://www.camptocamp.org/routes/723212
Le Bonnet de l'Évêque : Face SE par le vallon du Mas,Devoluy,44.7529,5.8508,1750,SE,S3,https://www.camptocamp.org/routes/721061
Pointe de Balafrasse : Depuis les Bouts par le col est,Aravis,46.0041,6.4638,900,E,S3,https://www.camptocamp.org/routes/743305
Rocca Rossa : depuis le pont de Lariane,Queyras,44.6905,6.9998,1170,NO,S2,https://www.camptocamp.org/routes/743274
Monte Ciaslaràs : Couloir E de la Brèche E,Queyras,44.5453,6.8823,1300,E,S4,https://www.camptocamp.org/routes/741332
Pic de l'Agrenier : En boucle E > W,Queyras,44.7807,6.8107,1090,N,S3,https://www.camptocamp.org/routes/740988
Pointe de Ripaille : Face E,Chablais,46.1656,6.8403,850,E,S3,https://www.camptocamp.org/routes/718409
La Berthe / Berte : Arête de Berroi et versant N du pt 1915,Chablais,46.1528,6.8285,840,NE,S3,https://www.camptocamp.org/routes/718405
Col de la Roya : Versant S,Queyras,44.8269,6.7051,950,SE,S3,https://www.camptocamp.org/routes/718110
Les Hauts-Forts : face N du sommet 2359,Chablais,46.1786,6.7637,1200,E,S4,https://www.camptocamp.org/routes/716213
Pas des Roubines de la Maïris : Depuis le Boréon,Mercantour,44.1068,7.3013,650,N,S3,https://www.camptocamp.org/routes/739999
Pointe Centrale de Tricot : Couloir S,Mont-Blanc,45.8393,6.7894,2050,S,S5,https://www.camptocamp.org/routes/739308
Tête de l'Enchastraye : Tour et sommet,Mercantour,44.3491,6.8779,1925,E,S3,https://www.camptocamp.org/routes/738853
Pic Pierroux : Couloir E de la Brèche 2277 m,Devoluy,44.755,5.9688,1177,E,S5,https://www.camptocamp.org/routes/738085
Tête des Bréquets : Face N,Queyras,44.4981,6.8332,1200,N,S5,https://www.camptocamp.org/routes/744684
Baisse du Basto : Traversée refuge des Merveilles refuge de Nice,Mercantour,44.0863,7.4267,750,N,S2,https://www.camptocamp.org/routes/743762
Col de Valasco : traversée refuge de la Cougourde refuge de Valasco,Mercantour,44.168,7.2711,1216,N,S3,https://www.camptocamp.org/routes/743760
Aiguille du Passon - Col NW : Couloir SW,Mont-Blanc,45.97,6.979,1090,SO,S4,https://www.camptocamp.org/routes/743351
Petit Galibier : Depuis Plan Lachat,Thabor,45.0632,6.4149,775,N,S3,https://www.camptocamp.org/routes/1765373
Cima Valcuca : Tour,Mercantour,44.1864,7.2452,830,E,S4,https://www.camptocamp.org/routes/1760028
Sommet S de Sarenne : Boucle par le couloir du lac du Cerisier,Grandes-Rousses,45.1116,6.1336,1300,S,S4,https://www.camptocamp.org/routes/1835332
Aiguille de Tricot : O'Sullivan Direct,Mont-Blanc,45.8316,6.8026,2600,S,S5,https://www.camptocamp.org/routes/1753448
Pointes de la Carmélite : Couloir de la Chambre,Aravis,45.9616,6.559,1350,NO,S4,https://www.camptocamp.org/routes/1851659
Col Adams Reilly : Couloir SW,Mont-Blanc,45.9708,6.9942,1390,SO,S4,https://www.camptocamp.org/routes/1854749
Grand Clot de la Boucharde : Du refuge de la Cantonnière.,Mercantour,44.2565,6.7624,760,S,S2,https://www.camptocamp.org/routes/617489
Pointe de Vorlaz : Face NE,Chablais,46.1822,6.8022,1146,NE,S4,https://www.camptocamp.org/routes/702511
Col du Grand Vallon : traversée vers Lanslebourg depuis Plan du Lac,Vanoise,45.327,6.8808,980,O,S3,https://www.camptocamp.org/routes/1753057
Tours de Notre-Dame - Tour N : Couloir de la Tour N,Thabor,45.085,6.4637,800,NO,S4,https://www.camptocamp.org/routes/1751580
Dômes de Miage - 5e Dôme : Piccolo Cristallo ,Mont-Blanc,45.8156,6.8067,2492,E,S3,https://www.camptocamp.org/routes/1833367
Moulin Lambert : Face N,Belledonne,45.3142,6.1673,1800,N,S3,https://www.camptocamp.org/routes/1833375
Pointe du Sifflet : Couloir S,Belledonne,45.213,6.0167,950,S,S4,https://www.camptocamp.org/routes/1750073
Le Sparveyre : Face E (de Bouchouse),Queyras,44.7291,6.9713,1300,E,S5,https://www.camptocamp.org/routes/1749943
Brèche N des Dames Anglaises : Couloir NE,Mont-Blanc,45.8183,6.8903,1000,NE,S3,https://www.camptocamp.org/routes/1833522
Dent du Loup : Couloir W direct,Chablais,46.342,6.7801,1343,O,S5,https://www.camptocamp.org/routes/1748842
Tête des Blaves : Crête des Blaves: Couloirs du versant NE,Queyras,44.4304,6.9005,800,NE,S4,https://www.camptocamp.org/routes/623759
Pointe Haute de Mary : Couloir SW / Couloir W oblique,Queyras,44.584,6.8689,1230,SO,S4,https://www.camptocamp.org/routes/623679
"Pointe des Sagnes Longues : Couloir NW supérieur ""En voulant bien...""",Queyras,44.7048,6.9168,1000,NO,S5,https://www.camptocamp.org/routes/622897
Pain de Sucre (Queyras) : Echarpe N,Queyras,44.7012,6.9518,1200,N,S4,https://www.camptocamp.org/routes/622881
Aiguille du Goûter : Couloir W,Mont-Blanc,45.8526,6.8219,2060,O,S5,https://www.camptocamp.org/routes/622837
Asti / Mont Aiguillette : Anello col de Vieux>Brèche de Ruine >comba NW >Vallone del Pis>grange del Rio>Col Agnel >Pont de Lariane,Queyras,44.6911,6.9948,2256,SO,S4,https://www.camptocamp.org/routes/622568
Col Supérieur du Tour Noir : Face NE,Mont-Blanc,45.9522,7.0408,2016,NE,S5,https://www.camptocamp.org/routes/622382
Punta Clapiera : da Ruilles per la Val Serpentiera,Queyras,44.8801,6.8939,1636,SO,S3,https://www.camptocamp.org/routes/621456
Carraye : Depuis Cretton par le Pas des Moutons,Mont-Blanc,46.0531,6.976,820,NO,S3,https://www.camptocamp.org/routes/727783
Tête de Sanguinière : Traversée S> N Estenc >> Bayasse,Mercantour,44.2726,6.7616,1000,N,S3,https://www.camptocamp.org/routes/727599
Monte Aiera : Versant NE,Mercantour,44.1881,7.4123,1650,NE,S4,https://www.camptocamp.org/routes/620435
Aiguille de Praz Torrent : Versant E de la Brèche de Praz Torrent,Mont-Blanc,46.006,6.9035,1035,E,S4,https://www.camptocamp.org/routes/618967
Pointe des Marcelettes : En boucle descente par le Rif Marcel,Queyras,44.6859,6.8657,1060,N,S4,https://www.camptocamp.org/routes/618842
Pointe des Rochers Charniers : Versante S per il Col du Chaberton,Thabor,44.9828,6.7407,1600,S,S3,https://www.camptocamp.org/routes/618455
Pointe du Dzonfié : depuis Charvaz,Beaufortain,45.5727,6.588,1200,SE,S2,https://www.camptocamp.org/routes/617611
La Saulire : Par les pistes de Courchevel,Vanoise,45.3829,6.6099,900,N,S3,https://www.camptocamp.org/routes/1767743
Pic des Trois Évêchés : Petit couloir NW,Grandes-Rousses,45.0758,6.3573,616,NO,S5,https://www.camptocamp.org/routes/1744404
Tête de la Costasse : Couloir SW du point 2580,Mercantour,44.1834,7.1931,500,SO,S3,https://www.camptocamp.org/routes/1744148
Pointe des Pavis : Face N,Chablais,46.3458,6.7558,850,N,S5,https://www.camptocamp.org/routes/1192217
